[
  {
    "lat": "55.1691612",
    "lng": "-118.7848353",
    "id": 3825738,
    "name": "Captivating Aesthetics",
    "phone": "(587) 771-0371",
    "web": "https:\/\/captivatingyou.ca\/",
    "webdisplay": "Captivating Aesthetics",
    "address": "101-9805 97 St",
    "address2": "Unit 101",
    "country": "Canada",
    "state": "AB",
    "city": "Grande Prairie",
    "postal": "T8V 8B9",
    "priority": 1
  },
  {
    "lat": "51.04295399999999",
    "lng": "-114.075664",
    "id": 3825739,
    "name": "ReNue Medical Aesthetics - Downtown Location",
    "phone": "(403) 454-1244",
    "web": "http:\/\/www.renue.ca\/",
    "webdisplay": "Renue Medical Aesthetics",
    "address": "628 11 Ave SW #100",
    "country": "Canada",
    "state": "AB",
    "city": "Calgary",
    "postal": "T2R 0E2",
    "priority": 1
  },
  {
    "lat": "50.9732421",
    "lng": "-114.0983409",
    "id": 3825740,
    "name": "OAS Laser Hair Centre",
    "phone": "(403) 255-0150",
    "web": "http:\/\/www.laserhaircentre.com\/",
    "webdisplay": "OAS Laser Hair Centre",
    "address": "D-274 Glenmore Landing 1600 90 th Avenue  S.W.",
    "country": "Canada",
    "state": "AB",
    "city": "Calgary",
    "postal": "T2V 5A8",
    "priority": 1
  },
  {
    "lat": "50.9735634",
    "lng": "-114.0992811",
    "id": 3825741,
    "name": "Glenmore Landing Vein Clinic",
    "phone": "(403) 253-2555",
    "web": "http:\/\/www.veinscalgary.com\/",
    "webdisplay": "Glenmore Landing Vein Clinic",
    "address": "D-267 1600 90th Avenue S.W.",
    "country": "Canada",
    "state": "AB",
    "city": "Calgary",
    "postal": "T2V 5A8",
    "priority": 1
  },
  {
    "lat": "51.0434304",
    "lng": "-114.0903059",
    "id": 3825743,
    "name": "Storwick Dermatology & Laser Clinic",
    "phone": "(403) 286-0086",
    "web": "http:\/\/www.storwickderm.com\/",
    "webdisplay": "Storwick Dermatology & Laser Clinic",
    "address": "1222 11th Avenue SW 3rd Floor",
    "country": "Canada",
    "state": "AB",
    "city": "Calgary",
    "postal": "T3C 0M4",
    "priority": 1
  },
  {
    "lat": "53.3396509",
    "lng": "-113.4161884",
    "id": 3825745,
    "name": "MD Spa and Laser Clinic",
    "phone": "(780) 929-9797",
    "web": "http:\/\/www.mdspa.ca\/",
    "webdisplay": "MD Spa and Laser Clinic",
    "address": "#105 Plaza Chaleureuse 5001 - 30th Avenue",
    "country": "Canada",
    "state": "AB",
    "city": "Beaumont",
    "postal": "T4X 1T9",
    "priority": 1
  },
  {
    "lat": "51.0400284",
    "lng": "-114.2092145",
    "id": 3825746,
    "name": "Vive Med Spa",
    "phone": "403 237 8428",
    "web": "https:\/\/vivemedspa.ca\/?utm_source=gmb&utm_medium=organic&utm_campaign=calgary",
    "webdisplay": "Vive Med Spa",
    "address": "215 - 366 Aspen Glen Landing SW",
    "country": "Canada",
    "state": "AB",
    "city": "Calgary",
    "postal": "T3H 0N5",
    "priority": 1
  },
  {
    "lat": "53.5663533",
    "lng": "-113.8836145",
    "id": 3825748,
    "name": "True Balance - Spruce Grove",
    "phone": "(780) 962-3262",
    "web": "http:\/\/mytruebalance.ca\/",
    "webdisplay": "True Balance - Spruce Grove",
    "address": "20 Westwind Dr Suite 111",
    "country": "Canada",
    "state": "AB",
    "city": "Spruce Grove",
    "postal": "T7X 0Y5",
    "priority": 1
  },
  {
    "lat": "50.009724",
    "lng": "-110.662003",
    "id": 3825753,
    "name": "Spa Therapeutics",
    "phone": "403.526.0216",
    "web": "http:\/\/spatherapeutics.ca\/",
    "webdisplay": "Spa Therapeutics",
    "address": "#14 3295 Dunmore Road SE",
    "country": "Canada",
    "state": "AB",
    "city": "Medicine Hat",
    "postal": "T1B 3R2",
    "priority": 1
  },
  {
    "lat": "53.613243",
    "lng": "-113.515419",
    "id": 3825755,
    "name": "Edmonton Skin Clinic",
    "phone": "(780) 472-2273",
    "web": "http:\/\/edmontonskinclinic.com\/",
    "webdisplay": "Edmonton Skin Clinic",
    "address": "#152-15277 Castledowns Road",
    "country": "Canada",
    "state": "AB",
    "city": "Edmonton",
    "postal": "T5X 3N5",
    "priority": 1
  },
  {
    "lat": "49.67791",
    "lng": "-112.80368",
    "id": 3825756,
    "name": "Dr. Ron Low Dermatology",
    "phone": "(403) 328-3100",
    "address": "#203 - 1410 Mayor Magrath Drive ",
    "country": "Canada",
    "state": "AB",
    "city": "Lethbridge",
    "postal": "T1K 2R3",
    "priority": 1
  },
  {
    "lat": "53.534035",
    "lng": "-113.323288",
    "id": 3825757,
    "name": "True Balance - Sherwood Park",
    "phone": "(780) 464-4506",
    "web": "http:\/\/mytruebalance.ca\/",
    "webdisplay": "True Balance - Sherwood Park",
    "address": "52 Sioux Road #203 ",
    "country": "Canada",
    "state": "AB",
    "city": "Sherwood Park",
    "postal": "T8A 4X1",
    "priority": 1
  },
  {
    "lat": "53.47840799999999",
    "lng": "-113.4938008",
    "id": 3825758,
    "name": "New Image Cosmetic",
    "phone": "(780) 756-3828",
    "web": "http:\/\/www.newimagecosmetic.com\/",
    "webdisplay": "New Image Cosmetic",
    "address": "4212 Gateway Blvd NW",
    "address2": "#203",
    "country": "Canada",
    "state": "AB",
    "city": "Edmonton",
    "postal": "T6J 7K1",
    "priority": 1
  },
  {
    "lat": "53.4266087",
    "lng": "-113.4749986",
    "id": 3825759,
    "name": "MD Laser Skin Care & Vein Clinic",
    "phone": "(780) 440-0556",
    "web": "http:\/\/www.mdlaserskin.ca\/",
    "webdisplay": "MD Laser Skin Care & Vein Clinic",
    "address": "#203, 728-91 Street SW",
    "country": "Canada",
    "state": "AB",
    "city": "Edmonton",
    "postal": "T6X 0E4",
    "priority": 1
  },
  {
    "lat": "51.0002943",
    "lng": "-114.0667638",
    "id": 3825763,
    "name": "Derma Vital",
    "phone": "(403) 249-4247",
    "web": "http:\/\/www.dermavital.ca\/",
    "webdisplay": "Derma Vital",
    "address": "Unit #520 - 5920 1A street SW",
    "country": "Canada",
    "state": "AB",
    "city": "Calgary",
    "postal": "T2H 0G3",
    "priority": 1
  },
  {
    "lat": "51.035973",
    "lng": "-114.166641",
    "id": 3825765,
    "name": "V Spa",
    "phone": "(403) 242-0484",
    "web": "https:\/\/www.vmedispa.com\/",
    "webdisplay": "V Spa",
    "address": "100-1919 Sirocco Drive SW",
    "country": "Canada",
    "state": "AB",
    "city": "Calgary",
    "postal": "T3H 2Y3",
    "priority": 1
  },
  {
    "lat": "55.168205",
    "lng": "-118.783775",
    "id": 3825767,
    "name": "Rejuvaderm",
    "phone": "(780) 513-2255",
    "web": "http:\/\/www.rejuvaderm.ca\/",
    "webdisplay": "Rejuvaderm",
    "address": "103, 9815-97th Street",
    "country": "Canada",
    "state": "AB",
    "city": "Grande Prairie",
    "postal": "T8V 8B9",
    "priority": 4
  },
  {
    "lat": "51.044174",
    "lng": "-114.084618",
    "id": 3825768,
    "name": "Professional Skin Care",
    "phone": "(403) 245-0204",
    "web": "http:\/\/plasticsurgerycentre.ca\/",
    "webdisplay": "Professional Skin Care",
    "address": "1030 10th Avenue S.W.",
    "country": "Canada",
    "state": "AB",
    "city": "Calgary",
    "postal": "T2R 1M4",
    "priority": 1
  },
  {
    "lat": "50.026745",
    "lng": "-110.668375",
    "id": 3825769,
    "name": "Terra Atma Medi Spa",
    "phone": "(403) 487-0130",
    "web": "http:\/\/www.terraatma.com\/",
    "webdisplay": "Terra Atma Medi Spa",
    "address": "105-1221 Kingsway Ave SE",
    "country": "Canada",
    "state": "AB",
    "city": "Medicine Hat",
    "postal": "T1A 2Y2",
    "priority": 1
  },
  {
    "lat": "51.053036",
    "lng": "-114.042877",
    "id": 3825770,
    "name": "Elegance Medispa",
    "phone": "(403) 452-9959",
    "web": "http:\/\/www.elegancecalgary.com",
    "webdisplay": "Elegance Medispa",
    "address": "124 8 St NE",
    "country": "Canada",
    "state": "AB",
    "city": "Calgary",
    "postal": "T2E 1M2",
    "priority": 1
  },
  {
    "lat": "50.8969326",
    "lng": "-113.9365606",
    "id": 3825771,
    "name": "Dermatology Centre Pharmacy",
    "phone": "(403) 299-5808",
    "web": "https:\/\/createpharmacy.ca\/",
    "webdisplay": "Dermatology Centre Pharmacy",
    "address": "159 Mahogany Centre SE",
    "country": "Canada",
    "state": "AB",
    "city": "Calgary",
    "postal": "T3M 2V6",
    "priority": 1
  },
  {
    "lat": "50.9436456",
    "lng": "-114.0018283",
    "id": 3825772,
    "name": "The Relaxing Wellness Company",
    "phone": "(403) 266-4535",
    "web": "http:\/\/www.relaxingwellnesscompany.com\/",
    "webdisplay": "The Relaxing Wellness Company",
    "address": "20 Douglas Woods Drive S.E Suite #32",
    "country": "Canada",
    "state": "AB",
    "city": "Calgary",
    "postal": "T2Z 1K2",
    "priority": 1
  },
  {
    "lat": "53.6291501",
    "lng": "-113.5468239",
    "id": 3825773,
    "name": "Albany Cosmetic & Laser Centre Inc",
    "phone": "(780) 244-2696",
    "web": "https:\/\/albanylaser.ca\/",
    "webdisplay": "Albany Cosmetic & Laser Centre Inc",
    "address": "12914 - 167 Ave",
    "country": "Canada",
    "state": "AB",
    "city": "Edmonton",
    "postal": "T6V 1J6",
    "priority": 1
  },
  {
    "lat": "53.455303",
    "lng": "-113.561615",
    "id": 3825775,
    "name": "Serene Radiance Medical Spa",
    "phone": "(780) 757-4442",
    "web": "http:\/\/www.sereneradiance.com\/",
    "webdisplay": "Serene Radiance Medical Spa",
    "address": "1356 Windermere Way",
    "country": "Canada",
    "state": "AB",
    "city": "Edmonton",
    "postal": "T6W 2J3",
    "priority": 1
  },
  {
    "lat": "51.007023",
    "lng": "-114.130013",
    "id": 3825778,
    "name": "Thermae Advanced Aesthetics",
    "phone": "(403) 263-8873",
    "web": "http:\/\/www.calgarymedicalspa.ca\/",
    "webdisplay": "Thermae Advanced Aesthetics",
    "address": "14B - 22 Richard Way S.W",
    "country": "Canada",
    "state": "AB",
    "city": "Calgary",
    "postal": "T3E 7M9",
    "priority": 1
  },
  {
    "lat": "53.523743",
    "lng": "-113.638351",
    "id": 3825779,
    "name": "Belmead Medical Centre",
    "phone": "(780) 481-8812",
    "address": "18220 - 89th Avenue",
    "country": "Canada",
    "state": "AB",
    "city": "Edmonton",
    "postal": "T5T 2K6",
    "priority": 1
  },
  {
    "lat": "51.052738",
    "lng": "-114.10965",
    "id": 3825781,
    "name": "Radiance Skin Rejuvenation Centre",
    "phone": "(403) 270-8075",
    "web": "http:\/\/www.radianceskincentre.com\/site\/",
    "webdisplay": "Radiance Skin Rejuvenation Centre",
    "address": "2128 Kensington Road N.W",
    "country": "Canada",
    "state": "AB",
    "city": "Calgary",
    "postal": "T2N 3R7",
    "priority": 1
  },
  {
    "lat": "51.023975",
    "lng": "-114.111259",
    "id": 3825782,
    "name": "Skin Care Boutiques",
    "phone": "(403) 249-1774",
    "address": "2131 33 Avenue, S.W.",
    "country": "Canada",
    "state": "AB",
    "city": "Calgary",
    "postal": "T2T 1Z7",
    "priority": 1
  },
  {
    "lat": "51.041534",
    "lng": "-114.053818",
    "id": 3825783,
    "name": "Inliv",
    "phone": "(403) 648-2135",
    "web": "http:\/\/www.inliv.com\/",
    "webdisplay": "Inliv",
    "address": "217-1111 Olympic Way,  SE",
    "country": "Canada",
    "state": "AB",
    "city": "Calgary",
    "postal": "T2G 0E6",
    "priority": 1
  },
  {
    "lat": "49.997211",
    "lng": "-110.643048",
    "id": 3825786,
    "name": "Lift",
    "phone": "(403) 952-9836",
    "web": "https:\/\/b-m.facebook.com\/Lift-by-Elisha-433555887100291\/",
    "webdisplay": "Lift",
    "address": "108-7 Strachan Bay",
    "country": "Canada",
    "state": "AB",
    "city": "Medicine Hat",
    "postal": "T1B 4Y2",
    "priority": 1
  },
  {
    "lat": "51.044437",
    "lng": "-114.069893",
    "id": 3825787,
    "name": "Papillon Medical Dermatology Laser Center",
    "phone": "(403) 263-0661",
    "web": "https:\/\/papillonmedical.com\/",
    "webdisplay": "Papillon Medical Dermatology Laser Center",
    "address": "315-401 9th Ave SW",
    "country": "Canada",
    "state": "AB",
    "city": "Calgary",
    "postal": "T2P 3C5",
    "priority": 1
  },
  {
    "lat": "53.632298",
    "lng": "-113.626137",
    "id": 3825790,
    "name": "Solace Medical Clinic",
    "phone": "(780) 419-3223",
    "web": "http:\/\/www.solacemedicalclinic.com\/",
    "webdisplay": "Solace Medical Clinic",
    "address": "36 St. Thomas Street",
    "country": "Canada",
    "state": "AB",
    "city": "St.  Albert",
    "postal": "T8N 7J6",
    "priority": 1
  },
  {
    "lat": "52.256145",
    "lng": "-113.813965",
    "id": 3825791,
    "name": "Aurora Laser & Vein Center",
    "phone": "(403) 358-5818",
    "web": "http:\/\/www.auroralaser.net\/",
    "webdisplay": "Aurora Laser & Vein Center",
    "address": "3947 50a Ave",
    "country": "Canada",
    "state": "AB",
    "city": "Red Deer",
    "postal": "T4N 6V7",
    "priority": 1
  },
  {
    "lat": "51.125385",
    "lng": "-114.073547",
    "id": 3825792,
    "name": "Hair Dimensions Salon & Spa",
    "phone": "(403) 516-0099",
    "web": "http:\/\/www.hairdimensions.ca\/",
    "webdisplay": "Hair Dimensions Salon & Spa",
    "address": "403 -8120 Beddington Boulevard  N.W.",
    "country": "Canada",
    "state": "AB",
    "city": "Calgary",
    "postal": "T3K 2A8",
    "priority": 1
  },
  {
    "lat": "50.963051",
    "lng": "-114.073296",
    "id": 3825796,
    "name": "Young and Wouters",
    "phone": "(403) 252-4410",
    "web": "https:\/\/www.ywclinic.ca\/",
    "webdisplay": "Young and Wouters",
    "address": "515 - 10333 Southport Road SW",
    "country": "Canada",
    "state": "AB",
    "city": "Calgary",
    "postal": "T2W 3X6",
    "priority": 1
  },
  {
    "lat": "49.734329",
    "lng": "-112.836411",
    "id": 3825797,
    "name": "Doll Face Hair and Skin Clinic",
    "phone": "(403) 593-8803",
    "web": "https:\/\/dollfacehairandskinclinic.com\/",
    "webdisplay": "Doll Face Hair and Skin Clinic",
    "address": "655 Marie Van Harleem Cres N",
    "country": "Canada",
    "state": "AB",
    "city": "Lethbridge",
    "postal": "T1H 6Y9",
    "priority": 1
  },
  {
    "lat": "53.5355776",
    "lng": "-113.3250505",
    "id": 3825798,
    "name": "Excellence Medical SkinCare Clinic",
    "phone": "(780) 570-5855",
    "web": "https:\/\/www.excellencemedicalandskincareclinic.com\/",
    "webdisplay": "Excellence Medical SkinCare Clinic",
    "address": "76-80 Chippewa Rd",
    "country": "Canada",
    "state": "AB",
    "city": "Sherwood Park",
    "postal": "T8A 4W6",
    "priority": 1
  },
  {
    "lat": "51.009548",
    "lng": "-114.082787",
    "id": 3825799,
    "name": "Britannia Dermedics",
    "phone": "(403) 984-4313",
    "web": "http:\/\/www.britanniadermedics.com\/",
    "webdisplay": "Britannia Dermedics",
    "address": "817A 49 th Ave SW",
    "country": "Canada",
    "state": "AB",
    "city": "Calgary",
    "postal": "T2S 1G8",
    "priority": 1
  },
  {
    "lat": "51.0889485",
    "lng": "-115.3635726",
    "id": 3825802,
    "name": "Canmore MediSpa and Laser Center",
    "phone": "(403) 678-5511",
    "web": "http:\/\/www.canmoremedispa.com\/",
    "webdisplay": "Canmore MediSpa and Laser Center",
    "address": "901 B Main Street",
    "country": "Canada",
    "state": "AB",
    "city": "Canmore",
    "postal": "T1W 2B4",
    "priority": 1
  },
  {
    "lat": "55.711784",
    "lng": "-116.909981",
    "id": 3825803,
    "name": "McLennan Laser & Skin Care Centre",
    "phone": "(780) 324-3055",
    "web": "https:\/\/www.mclennan.ca\/skin-care",
    "webdisplay": "McLennan Laser & Skin Care Centre",
    "address": "P.O. Box 266",
    "country": "Canada",
    "state": "AB",
    "city": "McLennan",
    "postal": "T0H 2L0",
    "priority": 1
  },
  {
    "lat": "51.0374723",
    "lng": "-114.1786791",
    "id": 3825804,
    "name": "Avenue Aesthetics by Nafey",
    "phone": "(403) 541-4240",
    "web": "https:\/\/aestheticsbynafey.com\/",
    "webdisplay": "Avenue Aesthetics by Nafey",
    "address": "55 Christie Point SW",
    "country": "Canada",
    "state": "AB",
    "city": "Calgary",
    "postal": "T3H 6G1",
    "priority": 1
  },
  {
    "lat": "53.6457404",
    "lng": "-113.6280162",
    "id": 3825805,
    "name": "True Balance - St. Albert",
    "phone": "(587) 290-2290",
    "web": "http:\/\/mytruebalance.ca\/",
    "webdisplay": "True Balance - St. Albert",
    "address": "31 Liberton Dr Suite #212",
    "country": "Canada",
    "state": "AB",
    "city": "St. Albert",
    "postal": "T8N 3X6",
    "priority": 1
  },
  {
    "lat": "52.28747",
    "lng": "-113.85277",
    "id": 3825806,
    "name": "Horizon Vein and Cosmetic Centre",
    "phone": "(403) 887-0551",
    "web": "http:\/\/www.horizonmedicine.ca\/",
    "webdisplay": "Horizon Vein and Cosmetic Centre",
    "address": "110-6845 66 Street",
    "country": "Canada",
    "state": "AB",
    "city": "Red Deer",
    "postal": "T4P 3T5",
    "priority": 1
  },
  {
    "lat": "50.99073",
    "lng": "-114.07222",
    "id": 3825807,
    "name": "Script Pharmacy",
    "phone": "(403) 253-6773",
    "web": "http:\/\/www.scriptpharmacy.ca\/",
    "webdisplay": "Script Pharmacy",
    "address": "Suite#100, 7015 Macleod Tr. SW",
    "country": "Canada",
    "state": "AB",
    "city": "Calgary",
    "postal": "T2H 2K6",
    "priority": 1
  },
  {
    "lat": "53.42786",
    "lng": "-113.478722",
    "id": 3825811,
    "name": "Lucere Dermatology & Laser Clinic",
    "phone": "(780) 461-1188",
    "email": "info@lucereskin.com",
    "fax": "(780) 440-9192",
    "web": "https:\/\/www.lucereskin.com\/",
    "webdisplay": "Lucere Dermatology & Laser Clinic",
    "address": "#109, 625 Parsons Road SW",
    "country": "Canada",
    "state": "AB",
    "city": "Edmonton",
    "postal": "T6X 0N9",
    "priority": 4
  },
  {
    "lat": "50.98896",
    "lng": "-114.068428",
    "id": 3825812,
    "name": "Remington Laser Dermatology Centre",
    "phone": "(403) 255-1633",
    "web": "https:\/\/www.remington-laser.com\/",
    "webdisplay": "Remington Laser Dermatology Centre",
    "address": "#150-7220 Fisher Street S. E.",
    "country": "Canada",
    "state": "AB",
    "city": "Calgary",
    "postal": "T2H 2H8",
    "priority": 1
  },
  {
    "lat": "51.0875888",
    "lng": "-114.1579794",
    "id": 3825813,
    "name": "Market Mall Dermatology",
    "phone": "(587) 779-9999",
    "web": "https:\/\/www.mmderm.ca\/",
    "webdisplay": "Market Mall Dermatology",
    "address": "#444 - 4935 40 Avenue NW.",
    "country": "Canada",
    "state": "AB",
    "city": "Calgary",
    "postal": "T3A 2N1",
    "priority": 1
  },
  {
    "lat": "50.87875",
    "lng": "-114.072327",
    "id": 3825815,
    "name": "Silverado Medical Aesthetics",
    "phone": "(403) 873-8999",
    "web": "https:\/\/www.silveradomedical.ca\/",
    "webdisplay": "Silverado Medical Aesthetics",
    "address": "#802 - 19369 Sheriff King St SW",
    "country": "Canada",
    "state": "AB",
    "city": "Calgary",
    "postal": "T2X 0T9",
    "priority": 1
  },
  {
    "lat": "53.540989",
    "lng": "-113.495575",
    "id": 3825816,
    "name": "Beauty Rewind - Edmonton",
    "phone": "(780) 761-0525",
    "web": "https:\/\/www.beautyrewind.ca\/",
    "webdisplay": "Beauty Rewind - Edmonton",
    "address": "103-10525 Jasper ave NW",
    "country": "Canada",
    "state": "AB",
    "city": "Edmonton",
    "postal": "T5J 1Z4",
    "priority": 1
  },
  {
    "lat": "53.513866",
    "lng": "-113.496819",
    "id": 3825817,
    "name": "Face FX Medspa",
    "phone": "(780) 690-9141",
    "web": "https:\/\/www.facefxyeg.com\/",
    "webdisplay": "Face FX Medspa",
    "address": "10367 78th Avenue NW",
    "country": "Canada",
    "state": "AB",
    "city": "Edmonton",
    "postal": "T6E 6T3",
    "priority": 1
  },
  {
    "lat": "53.532139",
    "lng": "-113.617401",
    "id": 3825820,
    "name": "Glo Skin and Medspa",
    "phone": "(780) 619-0999",
    "web": "http:\/\/m.mainstreethub.com\/gloskinmedspa",
    "webdisplay": "Glo Skin and Medspa",
    "address": "17026 - 95 Avenue NW",
    "country": "Canada",
    "state": "AB",
    "city": "Edmonton",
    "postal": "T5T 5R5",
    "priority": 1
  },
  {
    "lat": "50.9933825",
    "lng": "-114.0842765",
    "id": 3825822,
    "name": "GlowMD",
    "phone": "(403) 404-4569",
    "web": "https:\/\/glowmdclinics.janeapp.com\/book",
    "webdisplay": "GlowMD",
    "address": "314-6707 Elbow Dr SW",
    "country": "Canada",
    "state": "AB",
    "city": "Calgary",
    "postal": "T2V 0E5",
    "priority": 1
  },
  {
    "lat": "56.75848",
    "lng": "-111.438957",
    "id": 3825823,
    "name": "Achieve Wellness Spa",
    "phone": "(780) 750-3391",
    "web": "https:\/\/achievewellnessspa.com\/",
    "webdisplay": "Achieve Wellness Spa",
    "address": "206-112 Riverstone Ridge",
    "country": "Canada",
    "state": "AB",
    "city": "Fort McMurray",
    "postal": "T9K 1S6",
    "priority": 1
  },
  {
    "lat": "53.4399336",
    "lng": "-113.6196848",
    "id": 3825824,
    "name": "Edmonton Dermatology Cosmetic Centre",
    "phone": "(780) 784-0039",
    "web": "http:\/\/edmontonderm.ca\/",
    "webdisplay": "Edmonton Dermatology Cosmetic Centre",
    "address": "207, 5540 Windermere Blvd. NW",
    "country": "Canada",
    "state": "AB",
    "city": "Edmonton",
    "postal": "T6W2Z8",
    "priority": 1
  },
  {
    "lat": "53.64922",
    "lng": "-113.569656",
    "id": 3825825,
    "name": "Kingsridge Medical Clinic",
    "phone": "(780) 569-5455",
    "web": "https:\/\/www.kingsridgemedical.com\/",
    "webdisplay": "Kingsridge Medical Clinic",
    "address": "225 Carleton Drive Suite 101",
    "country": "Canada",
    "state": "AB",
    "city": "St.Albert",
    "postal": "T8N 4J9",
    "priority": 1
  },
  {
    "lat": "53.439926",
    "lng": "-113.619682",
    "id": 3825827,
    "name": "Forever Young Windermere",
    "phone": "(780) 224-7710",
    "web": "http:\/\/foreveryoungedmonton.com\/",
    "webdisplay": "Forever Young Windermere",
    "address": "5540 Windermere Blvd",
    "country": "Canada",
    "state": "AB",
    "city": "Edmonton",
    "postal": "T6W 0V7",
    "priority": 1
  },
  {
    "lat": "51.0180941",
    "lng": "-114.1921457",
    "id": 3825828,
    "name": "Springbank Mobile Skin Centre",
    "phone": "(403) 613-7464",
    "web": "https:\/\/springbankskincentre.com\/",
    "webdisplay": "Springbank Mobile Skin Centre",
    "address": "Suite 230 7460 Springbank Blvd",
    "country": "Canada",
    "state": "AB",
    "city": "Calgary",
    "postal": "T3H 0W4",
    "priority": 1
  },
  {
    "lat": "51.0517858",
    "lng": "-114.0951289",
    "id": 3825830,
    "name": "Glo Antiaging Treatment Bar",
    "phone": "(403) 455-0444",
    "web": "https:\/\/gloantiaging.com\/",
    "webdisplay": "Glo Antiaging Treatment Bar",
    "address": "1601 Westmount Road NW",
    "country": "Canada",
    "state": "AB",
    "city": "Calgary",
    "postal": "T2N 3M2",
    "priority": 6
  },
  {
    "lat": "51.15289",
    "lng": "-113.9728",
    "id": 3825831,
    "name": "Dermakarma Laser Spa",
    "phone": "(403) 590-6122",
    "web": "https:\/\/dermakarmaspa.com\/",
    "webdisplay": "Dermakarma Laser Spa",
    "address": "4250 109 Ave N.E Suite # 3219",
    "country": "Canada",
    "state": "AB",
    "city": "Calgary",
    "postal": "T3N 1Z3",
    "priority": 1
  },
  {
    "lat": "51.067608",
    "lng": "-114.128311",
    "id": 3825832,
    "name": "Calgary Aesthetic Medicine",
    "phone": "(403) 605-1853",
    "web": "http:\/\/www.mdrichard.com\/",
    "webdisplay": "Calgary Aesthetic Medicine",
    "address": "Foothills Professional Building 1620- 29th Street N.W. Unit 260",
    "country": "Canada",
    "state": "AB",
    "city": "Calgary",
    "postal": "T2N 4L7",
    "priority": 1
  },
  {
    "lat": "33.588112",
    "lng": "-111.976479",
    "id": 3825836,
    "name": "Center for Dermatology and Plastic Surgery - Paradise Valley",
    "phone": "(480) 905-8485",
    "web": "http:\/\/azskindoc.com\/",
    "address": "#175 - 11209 N Tatum Blvd ",
    "country": "United States of America",
    "state": "AZ",
    "city": "Phoenix",
    "postal": "85208",
    "priority": 1
  },
  {
    "lat": "33.64064",
    "lng": "-111.89608",
    "id": 3825838,
    "name": "The Pogue Center",
    "phone": "(480) 515-5400",
    "web": "http:\/\/www.drpogue.com",
    "address": "8535 E. Hartford Drive Suite 100 ",
    "country": "United States of America",
    "state": "AZ",
    "city": "Scottsdale",
    "postal": "85255",
    "priority": 1
  },
  {
    "lat": "33.321941",
    "lng": "-111.988266",
    "id": 3825839,
    "name": "Ahwatukee Skin and Laser",
    "phone": "(480) 704-7546",
    "web": "http:\/\/ahwatukeeskincare.com\/",
    "address": "4425 E Agave Rd, Bldg 9, Suite 148 ",
    "country": "United States of America",
    "state": "AZ",
    "city": "Phoenix",
    "postal": "85044",
    "priority": 1
  },
  {
    "lat": "34.54097",
    "lng": "-112.4664",
    "id": 3825841,
    "name": "Healthy Skin 4 You",
    "phone": "(928) 708-9355",
    "web": "http:\/\/www.theheartshopaz.com",
    "address": " 223 E Union Street",
    "country": "United States of America",
    "state": "AZ",
    "city": "Prescott",
    "postal": "86303",
    "priority": 1
  },
  {
    "lat": "33.611938",
    "lng": "-111.896721",
    "id": 3825842,
    "name": "The Hansen Clinic of Natural Medicine",
    "phone": "(480) 991-5092",
    "web": "https:\/\/www.drhansen.com\/",
    "address": "13840 N Northsight Blvd Suite 105 Suite 110",
    "country": "United States of America",
    "state": "AZ",
    "city": "Scottsdale",
    "postal": "85260",
    "priority": 1
  },
  {
    "lat": "33.508915",
    "lng": "-112.022125",
    "id": 3825844,
    "name": "Biltmore Skin Care Center",
    "phone": "(602) 224-6100",
    "web": "http:\/\/biltmoreskincare.com\/",
    "address": "2525 E. Biltmore Cir suite 121",
    "country": "United States of America",
    "state": "AZ",
    "city": "Phoenix",
    "postal": "85016",
    "priority": 1
  },
  {
    "lat": "33.783665",
    "lng": "-111.947716",
    "id": 3825845,
    "name": "Deborah Bash MD, PLLC, Plastic Surgery",
    "phone": "(602) 792-5789",
    "web": "https:\/\/bashmd.com\/",
    "address": "7033 E Greenway Pkwy Suite 180",
    "country": "United States of America",
    "state": "AZ",
    "city": "Scottsdale",
    "postal": "85254",
    "priority": 1
  },
  {
    "lat": "33.641026",
    "lng": "-112.218712",
    "id": 3825848,
    "name": "Skin LTD",
    "phone": "(602) 684-9975",
    "web": "http:\/\/skinfitness.us\/",
    "address": "17235 N. 75th Avenue Suite C125 ",
    "country": "United States of America",
    "state": "AZ",
    "city": "Glendale",
    "postal": "85308",
    "priority": 1
  },
  {
    "lat": "33.670399",
    "lng": "-111.920464",
    "id": 3825851,
    "name": "Dr. David A. Hecht. MD, PC",
    "phone": "(480) 374-2935",
    "web": "http:\/\/www.drdavidhecht.com\/",
    "address": "20201 N Scottsdale Healthcare Dr. Suite 250 ",
    "country": "United States of America",
    "state": "AZ",
    "city": "Scottsdale",
    "postal": "85255",
    "priority": 1
  },
  {
    "lat": "49.2732711",
    "lng": "-123.1228968",
    "id": 3825856,
    "name": "Yaletown Medical Clinic",
    "phone": "(604) 633-2474",
    "web": "http:\/\/drschwab.com\/",
    "webdisplay": "drschwab.com\/",
    "address": "1296 Pacific Blvd",
    "country": "Canada",
    "state": "BC",
    "city": "Vancouver",
    "postal": "V6Z  2V1",
    "priority": 1
  },
  {
    "lat": "48.489586",
    "lng": "-123.384216",
    "id": 3825859,
    "name": "Dr. Gillian Rosenthal",
    "phone": "(250) 380-2600",
    "web": "http:\/\/www.rosenthalclinic.ca",
    "address": "4450 Chatterton Way Suite 203",
    "country": "Canada",
    "state": "BC",
    "city": "Victoria",
    "postal": "V8X 5J2",
    "priority": 1
  },
  {
    "lat": "49.123463",
    "lng": "-122.662041",
    "id": 3825860,
    "name": "Rejuva Medispa & Laser",
    "phone": "(604) 539-5555",
    "web": "http:\/\/www.rejuva.ca\/",
    "address": "20202 - 66th Avenue Unit B1A",
    "country": "Canada",
    "state": "BC",
    "city": "Langley",
    "postal": "V2Y 1P3",
    "priority": 1
  },
  {
    "lat": "49.2634447",
    "lng": "-123.1454275",
    "id": 3825861,
    "name": "8 West Cosmetic Surgery & Skin Clinic",
    "phone": "(604) 733-1669",
    "web": "http:\/\/8west.ca",
    "webdisplay": "joyviva.ca http:\/\/8west.ca",
    "address": "#300 - 1788 West Broadway",
    "country": "Canada",
    "state": "BC",
    "city": "Vancouver",
    "postal": "V6J 1Y1",
    "priority": 1
  },
  {
    "lat": "49.263611",
    "lng": "-123.121445",
    "id": 3825862,
    "name": "Vancouver Plastic Surgery Center",
    "phone": "(604) 876-9774",
    "web": "http:\/\/www.vancouverplasticsurgerycenter.com\/",
    "address": "#1000 - 777 Broadway West ",
    "country": "Canada",
    "state": "BC",
    "city": "Vancouver",
    "postal": "V5Z 4J7",
    "priority": 1
  },
  {
    "lat": "49.327682",
    "lng": "-123.158806",
    "id": 3825863,
    "name": "Seawall Medical Center",
    "phone": "(604) 281-2444",
    "web": "http:\/\/www.seawallmedical.com\/",
    "address": "#102 - 1590 Bellevue Avenue ",
    "country": "Canada",
    "state": "BC",
    "city": "West Vancouver",
    "postal": "V7V 3R5",
    "priority": 1
  },
  {
    "lat": "49.86560890000001",
    "lng": "-119.4885286",
    "id": 3825864,
    "name": "Smooth Effects - Kelowna",
    "phone": "(250) 860-0005",
    "web": "http:\/\/www.smootheffects.com",
    "webdisplay": "Smooth Effects",
    "address": "2780 Richter St",
    "country": "Canada",
    "state": "BC",
    "city": "Kelowna",
    "postal": "V1Y 2R5",
    "priority": 1
  },
  {
    "lat": "50.265377",
    "lng": "-119.276413",
    "id": 3825865,
    "name": "North Okanagan Skin & Laser",
    "phone": "(250) 542-2721",
    "web": "http:\/\/nosl.ca\/",
    "webdisplay": "nosl.ca\/",
    "address": "#104-3307, 32nd Avenue ",
    "country": "Canada",
    "state": "BC",
    "city": "Vernon",
    "postal": "V1T 2M7",
    "priority": 1
  },
  {
    "lat": "50.67815",
    "lng": "-120.330597",
    "id": 3825867,
    "name": "Kamloops Skin Solutions",
    "phone": "(250) 372-9995",
    "web": "http:\/\/www.kamloopsskinsolutions.com\/",
    "address": "#114 - 436 Lorne St. ",
    "country": "Canada",
    "state": "BC",
    "city": "Kamloops",
    "postal": "V2C 1W3",
    "priority": 1
  },
  {
    "lat": "49.311569",
    "lng": "-123.077805",
    "id": 3825868,
    "name": "Eternal Skin Care Inc.",
    "phone": "(604) 982-3240",
    "web": "http:\/\/eternalskincare.ca\/",
    "address": "#120, 100 East 1st Street ",
    "country": "Canada",
    "state": "BC",
    "city": "North Vancouver",
    "postal": "V7L 1B1",
    "priority": 1
  },
  {
    "lat": "54.780739",
    "lng": "-127.171181",
    "id": 3825869,
    "name": "Cloud Nine Esthetics",
    "phone": "(250) 847-4621",
    "web": "www.cloud9smithers.ca",
    "address": "#2 - 3830 ",
    "country": "Canada",
    "state": "BC",
    "city": "Smithers",
    "postal": "V0J 2N0",
    "priority": 1
  },
  {
    "lat": "49.282391",
    "lng": "-122.795891",
    "id": 3825870,
    "name": "Dr's. Barbara & Daniel Yip Inc.",
    "phone": "(604) 468-2248",
    "web": "http:\/\/dryipaesthetics.com\/",
    "address": "#20 - 1161 The High Street ",
    "country": "Canada",
    "state": "BC",
    "city": "Coquitlam",
    "postal": "V3B 7W3",
    "priority": 1
  },
  {
    "lat": "49.184353",
    "lng": "-123.96714",
    "id": 3825871,
    "name": "Dr. Richard Robinson Plastic Surgery",
    "phone": "(250) 753-1622",
    "web": "http:\/\/www.nanaimoplasticsurgery.com\/",
    "address": "#201-1125 Dufferin Crescent ",
    "country": "Canada",
    "state": "BC",
    "city": "Nanaimo",
    "postal": "V9S 2B5",
    "priority": 1
  },
  {
    "lat": "50.668381",
    "lng": "-120.358192",
    "id": 3825872,
    "name": "SONA MD",
    "phone": "(778) 471-6555",
    "web": "http:\/\/sonamd.ca",
    "address": "#202 - 755 McGill Road ",
    "country": "Canada",
    "state": "BC",
    "city": "Kamloops",
    "postal": "V2C 0B6",
    "priority": 1
  },
  {
    "lat": "48.43236719999999",
    "lng": "-123.3228897",
    "id": 3825873,
    "name": "Cosmedica Skincare Services",
    "phone": "(250) 598-3300",
    "web": "http:\/\/www.cosmedica.ca\/",
    "webdisplay": "Cosmedica Skincare Services",
    "address": "#207 - 1990 Fort Street ",
    "country": "Canada",
    "state": "BC",
    "city": "Victoria",
    "postal": "V8R 6V4",
    "priority": 6
  },
  {
    "lat": "49.3292051",
    "lng": "-123.159229",
    "id": 3825874,
    "name": "West Vancouver Skin Care Clinic",
    "phone": "(604) 926-7546",
    "web": "https:\/\/westvancouverskincare.com\/contact-us\/",
    "webdisplay": "https:\/\/westvancouverskincare.com\/contact-us\/",
    "address": "Suite 207D-575 16th St",
    "country": "Canada",
    "state": "BC",
    "city": "West Vancouver",
    "postal": "V7V 4Y1",
    "priority": 1
  },
  {
    "lat": "48.468231",
    "lng": "-123.334198",
    "id": 3825875,
    "name": "Dr. B.R. Kruger Inc",
    "phone": "(250) 374-3202",
    "address": "#250 - 1555 McKenzie Ave ",
    "country": "Canada",
    "state": "BC",
    "city": "Victoria",
    "postal": "V8N 1A4",
    "priority": 1
  },
  {
    "lat": "49.856655",
    "lng": "-119.489861",
    "id": 3825876,
    "name": "Okanagan Skin Care Centre",
    "phone": "(250) 868-9290",
    "web": "http:\/\/okanaganskincare.ca\/",
    "address": "#304 -3320 Richter Street ",
    "country": "Canada",
    "state": "BC",
    "city": "Kelowna",
    "postal": "V1W 4V5",
    "priority": 4
  },
  {
    "lat": "49.263577",
    "lng": "-123.126137",
    "id": 3825877,
    "name": "Fairview Plastic Surgery Centre",
    "phone": "(604) 734-1416",
    "web": "http:\/\/www.fairviewplasticsurgery.com\/",
    "address": "#480 -  999 West Broadway ",
    "country": "Canada",
    "state": "BC",
    "city": "Vancouver",
    "postal": "V5Z 1K5",
    "priority": 1
  },
  {
    "lat": "49.263676",
    "lng": "-123.133415",
    "id": 3825878,
    "name": "Rejuveness Skin Centre",
    "phone": "(604) 738-1012",
    "web": "http:\/\/integrative.ca\/",
    "address": "#730 - 1285 W. Broadway ",
    "country": "Canada",
    "state": "BC",
    "city": "Vancouver",
    "postal": "V6H 3X8",
    "priority": 1
  },
  {
    "lat": "49.085121",
    "lng": "-123.064674",
    "id": 3825879,
    "name": "Segal Vein & Laser",
    "phone": "(604) 940-2177",
    "web": "http:\/\/www.segalmdhealth.com\/",
    "address": "102-4515 Harvest Drive ",
    "country": "Canada",
    "state": "BC",
    "city": "Delta",
    "postal": "V4K 4L1",
    "priority": 1
  },
  {
    "lat": "49.1443388",
    "lng": "-121.9588396",
    "id": 3825880,
    "name": "Dermapure Canada Inc.",
    "phone": "(604) 824-9797",
    "web": "https:\/\/www.dermapure.com\/",
    "webdisplay": "www.lazureclinique.com\/",
    "address": "103A-45793 Luckakuck Way ",
    "country": "Canada",
    "state": "BC",
    "city": "Chilliwack",
    "postal": "V2R 5S3",
    "priority": 1
  },
  {
    "lat": "49.241741",
    "lng": "-124.041512",
    "id": 3825881,
    "name": "Rewind Medspa",
    "phone": "(250) 933-1133",
    "web": "http:\/\/www.rewindmedspa.com\/",
    "address": "104 - 6330 Dover Road ",
    "country": "Canada",
    "state": "BC",
    "city": "Nanaimo",
    "postal": "V9V 1S4",
    "priority": 1
  },
  {
    "lat": "49.334858",
    "lng": "-123.179428",
    "id": 3825883,
    "name": "Advanced Laser Technology & Cosmetic Center",
    "phone": "(604) 925-1301",
    "web": "http:\/\/www.drshadankabiri.com\/",
    "address": "1065 24th Street ",
    "country": "Canada",
    "state": "BC",
    "city": "West Vancouver",
    "postal": "V7V 4H1",
    "priority": 1
  },
  {
    "lat": "49.279831",
    "lng": "-122.792641",
    "id": 3825884,
    "name": "Ocean Spa",
    "phone": "(778) 879-7201",
    "web": "http:\/\/www.wai-spa.com\/",
    "address": "1163 Pinetree Way Unit 1076 ",
    "country": "Canada",
    "state": "BC",
    "city": "Coquitlam",
    "postal": "V3B 8A9",
    "priority": 1
  },
  {
    "lat": "49.289276",
    "lng": "-123.126846",
    "id": 3825885,
    "name": "Pender Medi Spa",
    "phone": "(604) 681-6399",
    "web": "http:\/\/pendermedispa.com",
    "address": "1366 W Pender St ",
    "country": "Canada",
    "state": "BC",
    "city": "Vancouver",
    "postal": "V6E 4S9",
    "priority": 1
  },
  {
    "lat": "49.219105",
    "lng": "-123.118584",
    "id": 3825888,
    "name": "Reviva Laser Skin & Vein Clinic",
    "phone": "(604) 233-0878",
    "web": "http:\/\/www.revivamd.com\/en\/",
    "address": "150 B, 8220 Lansdowne Rd. ",
    "country": "Canada",
    "state": "BC",
    "city": "Richmond",
    "postal": "V6X 1B9",
    "priority": 1
  },
  {
    "lat": "53.91045",
    "lng": "-122.742203",
    "id": 3825889,
    "name": "Vanishings Laser Esthetics Inc.",
    "phone": "(250) 564-5255",
    "web": "http:\/\/www.vanishings.ca\/",
    "address": "1611 - 15th Avenue ",
    "country": "Canada",
    "state": "BC",
    "city": "Prince George",
    "postal": "V2L 3X2",
    "priority": 1
  },
  {
    "lat": "49.286167",
    "lng": "-123.123123",
    "id": 3825890,
    "name": "Dr. Nancy Van Laeken Cosmetic, Plastic & Reconstructive Surgery",
    "phone": "(604) 669-1633",
    "web": "http:\/\/www.vanlaeken.com\/",
    "address": "1788 -1111 West Georgia St. ",
    "country": "Canada",
    "state": "BC",
    "city": "Vancouver",
    "postal": "V6E 4M3",
    "priority": 1
  },
  {
    "lat": "50.011013",
    "lng": "-125.247459",
    "id": 3825891,
    "name": "Discovery Laser",
    "phone": "(250) 286-4565",
    "web": "http:\/\/www.discoverylaser.ca\/",
    "address": "191-B Dogwood Street ",
    "country": "Canada",
    "state": "BC",
    "city": "Campbell River",
    "postal": "V9W 2X5",
    "priority": 1
  },
  {
    "lat": "49.491356",
    "lng": "-117.294983",
    "id": 3825892,
    "name": "Kootenay Medical Aesthetics",
    "phone": "(250) 354-2003",
    "web": "http:\/\/www.eternallyyoung.ca\/",
    "address": "202 - 402 Baker St. ",
    "country": "Canada",
    "state": "BC",
    "city": "Nelson",
    "postal": "V1L 4H8",
    "priority": 1
  },
  {
    "lat": "49.271816",
    "lng": "-123.134407",
    "id": 3825893,
    "name": "Clarite Holistic Skin Care and Etiotherapy by Colette Yeomans",
    "phone": "(604) 831-0070",
    "web": "http:\/\/www.claritewellness.com\/",
    "address": "203-1551 Johnston St ",
    "country": "Canada",
    "state": "BC",
    "city": "Vancouver",
    "postal": "V6H3R9",
    "priority": 1
  },
  {
    "lat": "48.422775",
    "lng": "-123.310677",
    "id": 3825894,
    "name": "Rosenthal Clinic",
    "phone": "(250) 380-2600",
    "web": "http:\/\/rosenthalclinic.ca\/",
    "address": "203-4450 Chatterton Way ",
    "country": "Canada",
    "state": "BC",
    "city": "Victoria",
    "postal": "V8X 5J2",
    "priority": 1
  },
  {
    "lat": "49.328369",
    "lng": "-123.160477",
    "id": 3825895,
    "name": "The Acne Clinic",
    "phone": "(604) 926-2236",
    "web": "http:\/\/www.theacneclinic.com\/",
    "address": "22 - 285  17th Street ",
    "country": "Canada",
    "state": "BC",
    "city": "West Vancouver",
    "postal": "V7V 3S5",
    "priority": 1
  },
  {
    "lat": "49.2346",
    "lng": "-123.162048",
    "id": 3825896,
    "name": "AAM-Anti-Aging Medical and Laser Clinic",
    "phone": "(604) 261-9121",
    "web": "http:\/\/www.antiagingvancouver.com\/",
    "address": "2200 West 4th Avenue ",
    "country": "Canada",
    "state": "BC",
    "city": "Vancouver",
    "postal": "V6K 1N8",
    "priority": 1
  },
  {
    "lat": "49.828655",
    "lng": "-119.628166",
    "id": 3825898,
    "name": "SenSei Laser and Vein Rejuvenation",
    "phone": "(250) 768-5355",
    "web": "http:\/\/www.senseilaser.org\/",
    "address": "2448 Dobbin Road ",
    "country": "Canada",
    "state": "BC",
    "city": "West Kelowna",
    "postal": "V4T 1K5",
    "priority": 1
  },
  {
    "lat": "49.2632834",
    "lng": "-123.1279854",
    "id": 3825899,
    "name": "CuR Laser and Skin",
    "phone": "(604) 662-7368",
    "web": "http:\/\/www.curlaser.com\/",
    "webdisplay": "www.curlaser.com\/",
    "address": "1062 West Broadway",
    "country": "Canada",
    "state": "BC",
    "city": "Vancouver",
    "postal": "V6H 1E6",
    "priority": 1
  },
  {
    "lat": "43.5491235",
    "lng": "-80.2782715",
    "id": 3825901,
    "name": "Guelph Medical Laser & Skin Centre",
    "phone": "(519) 837-1897",
    "web": "http:\/\/guelphlaser.ca\/",
    "webdisplay": "guelphlaser.ca\/",
    "address": "89 Dawson Road Suite 209",
    "country": "Canada",
    "state": "ON",
    "city": "Guelph",
    "postal": "N1H 1B1",
    "priority": 6
  },
  {
    "lat": "49.2656801",
    "lng": "-122.7773949",
    "id": 3825902,
    "name": "Green Family Wellness Center",
    "phone": "(778) 866-0642",
    "web": "http:\/\/greenfamilywellness.com\/contact-us-links\/",
    "webdisplay": "greenfamilywellness.com\/contact-us-links\/",
    "address": "2850 Shaughnessy St",
    "country": "Canada",
    "state": "BC",
    "city": "Coquitlam",
    "postal": "V3C 6K5",
    "priority": 1
  },
  {
    "lat": "49.857979",
    "lng": "-119.490913",
    "id": 3825903,
    "name": "Lakeshore Vein and Aesthetics Clinic Inc",
    "phone": "(250) 860-9919",
    "web": "http:\/\/www.veinskin.com\/",
    "address": "3293 Lakeshore Road ",
    "country": "Canada",
    "state": "BC",
    "city": "Kelowna",
    "postal": "V1W 3S9",
    "priority": 1
  },
  {
    "lat": "49.8568",
    "lng": "-119.489616",
    "id": 3825904,
    "name": "Faces of Kelowna",
    "phone": "(250) 868-8056",
    "web": "http:\/\/www.facesofkelowna.com\/",
    "address": "3330 Richter Street, Suite 204 ",
    "country": "Canada",
    "state": "BC",
    "city": "Kelowna",
    "postal": "V1W 4V5",
    "priority": 1
  },
  {
    "lat": "49.139286",
    "lng": "-123.014465",
    "id": 3825906,
    "name": "Essential Day Spa",
    "phone": "(604) 940-0234",
    "web": "https:\/\/www.essentialdayspa.com\/",
    "address": "4356 W10th Ave ",
    "country": "Canada",
    "state": "BC",
    "city": "Vancouver",
    "postal": "V6R 2H7",
    "priority": 1
  },
  {
    "lat": "49.280876",
    "lng": "-123.004463",
    "id": 3825907,
    "name": "Heights Laser Center",
    "phone": "(604) 298-4481",
    "web": "http:\/\/www.heightslaser.com\/",
    "address": "4446 East Hastings Street ",
    "country": "Canada",
    "state": "BC",
    "city": "Burnaby",
    "postal": "V5C 2K2",
    "priority": 1
  },
  {
    "lat": "49.284824",
    "lng": "-123.114464",
    "id": 3825908,
    "name": "Breathe Spa",
    "phone": "(604) 688-4769",
    "web": "http:\/\/www.breathespa.net\/",
    "address": "464 Granville St., ",
    "country": "Canada",
    "state": "BC",
    "city": "Vancouver",
    "postal": "V6C 1V4",
    "priority": 1
  },
  {
    "lat": "49.169342",
    "lng": "-123.14798",
    "id": 3825910,
    "name": "Dr.  W. Lorne Brown Inc.",
    "phone": "(604) 273-6449",
    "web": "http:\/www.drlornebrown.com",
    "address": "830-6091 Gilbert Road ",
    "country": "Canada",
    "state": "BC",
    "city": "Richmond",
    "postal": "V7C 5L9",
    "priority": 1
  },
  {
    "lat": "49.266579",
    "lng": "-122.773392",
    "id": 3825912,
    "name": "EverYoung Medical Aesthetics - Port Coquitlam",
    "phone": "(604) 942-8849",
    "web": "http:\/\/www.everyoungmed.com",
    "webdisplay": "www.everyoungmed.com",
    "address": "B210-2099 Lougheed Hwy ",
    "country": "Canada",
    "state": "BC",
    "city": "Port Coquitlam",
    "postal": "V3B 1A8",
    "priority": 1
  },
  {
    "lat": "49.263485",
    "lng": "-123.121536",
    "id": 3825913,
    "name": "Dr. Peter Lennox Vancouver Plastic Surgery",
    "phone": "(604) 876-9774",
    "web": "http:\/\/www.drpeterlennox.com\/",
    "address": "Suite 1000 - 777 W. Broadway ",
    "country": "Canada",
    "state": "BC",
    "city": "Vancouver",
    "postal": "V5Z 4J7",
    "priority": 1
  },
  {
    "lat": "33.88863",
    "lng": "35.49548",
    "id": 3825915,
    "name": "Medica Pharmaceutical",
    "phone": "971 4 4370669",
    "web": "http:\/\/www.medicagroup.com\/Home",
    "address": "Jal el Dib Malah Center, 11th floor",
    "country": "Lebanon",
    "state": "Beirut",
    "city": "Jdeideh",
    "priority": 1
  },
  {
    "lat": "50.6524866",
    "lng": "-120.3662894",
    "id": 3825916,
    "name": "Smooth Effects - Kamloops",
    "phone": "(250) 372-2261",
    "web": "http:\/\/www.smootheffects.ca\/index.php",
    "webdisplay": "www.smootheffects.ca\/index.php",
    "address": "305 - 1801 Princeton Kamloops Hwy",
    "country": "Canada",
    "state": "BC",
    "city": "Kamloops",
    "postal": "V2E 2J7",
    "priority": 1
  },
  {
    "lat": "49.192017",
    "lng": "-122.839432",
    "id": 3825918,
    "name": "Beautiful Canadian Laser & Skincare",
    "phone": "(604) 580-2464",
    "web": "https:\/\/www.bclaserandskincare.com\/",
    "address": "101-13805 104 avenue ",
    "country": "Canada",
    "state": "BC",
    "city": "Surrey",
    "postal": "V3T 1W7",
    "priority": 1
  },
  {
    "lat": "49.881458",
    "lng": "-119.475395",
    "id": 3825919,
    "name": "Restore Vein & Skin Centre",
    "phone": "(236) 420-2888",
    "web": "http:\/\/www.kelownarestore.com\/",
    "address": "288-1835 Gordon Drive ",
    "country": "Canada",
    "state": "BC",
    "city": "Kelowna",
    "postal": "V1Y 2H5",
    "priority": 1
  },
  {
    "lat": "49.275597",
    "lng": "-123.121101",
    "id": 3825920,
    "name": "The Vanity Lab Medical Aesthetics",
    "phone": "(604) 699-1001",
    "web": "https:\/\/www.thevanitylab.com\/",
    "address": "302-1110 Hamilton St. ",
    "country": "Canada",
    "state": "BC",
    "city": "Vancouver",
    "postal": "V6B 2S2",
    "priority": 1
  },
  {
    "lat": "49.26305",
    "lng": "-123.121094",
    "id": 3825921,
    "name": "Vancouver Laser and Skin Care Centre",
    "phone": "(604) 708-9891",
    "web": "https:\/\/www.vancouverlaser.com\/",
    "address": "309-750 W. Broadway ",
    "country": "Canada",
    "state": "BC",
    "city": "Vancouver",
    "postal": "V5Z 1HZ",
    "priority": 1
  },
  {
    "lat": "49.267513",
    "lng": "-123.119247",
    "id": 3825922,
    "name": "False Creek Skin Solution Clinic",
    "phone": "(604) 877-1299",
    "web": "http:\/\/fcskinsolution.com\/",
    "address": "660A Leg in Boot Square ",
    "country": "Canada",
    "state": "BC",
    "city": "Vancouver",
    "postal": "V5Z 4B3",
    "priority": 1
  },
  {
    "lat": "49.884937",
    "lng": "-119.489136",
    "id": 3825923,
    "name": "DermMedica",
    "phone": "(250) 868-3070",
    "web": "https:\/\/www.dermmedica.ca\/",
    "address": "200-1626 Richter Street ",
    "country": "Canada",
    "state": "BC",
    "city": "Kelowna",
    "postal": "V1Y 2M3",
    "priority": 1
  },
  {
    "lat": "32.8379946",
    "lng": "-117.2721795",
    "id": 3825924,
    "name": "La Jolla Dermatology Cosmetic Surgery Center",
    "phone": "(858) 454-8811",
    "web": "http:\/\/www.drhowardgmilstein.com\/",
    "webdisplay": "www.drhowardgmilstein.com\/",
    "address": "7334 Girard Avenue Suite 201",
    "country": "USA",
    "state": "CA",
    "city": "La Jolla",
    "postal": "92037",
    "priority": 1
  },
  {
    "lat": "33.902508",
    "lng": "-118.382645",
    "id": 3825925,
    "name": "Dermstore LLC",
    "phone": "(310) 683-0940",
    "web": "http:\/\/www.dermstore.com\/",
    "address": "2301 Rosecrans Avenue Suite 2100",
    "country": "United States of America",
    "state": "CA",
    "city": "El Segundo",
    "postal": "90245",
    "priority": 1
  },
  {
    "lat": "33.6256552",
    "lng": "-117.7169485",
    "id": 3825926,
    "name": "Crescent Health Center",
    "phone": "(949) 727-4762",
    "web": "http:\/\/www.drskinspa.com\/",
    "webdisplay": "www.drskinspa.com\/",
    "address": "23161 Lake Center Drive, Suite 210",
    "country": "USA",
    "state": "CA",
    "city": "Lake Forest",
    "postal": "92630",
    "priority": 1
  },
  {
    "lat": "34.2819569",
    "lng": "-119.2943532",
    "id": 3825928,
    "name": "Coastal Skin Care Day Spa",
    "phone": "(805) 641-2345",
    "web": "http:\/\/www.coastalskincare.net",
    "webdisplay": "www.coastalskincare.net",
    "address": "428 Poli St Suite 2C ",
    "country": "USA",
    "state": "CA",
    "city": "Venture",
    "postal": "93001",
    "priority": 1
  },
  {
    "lat": "33.861881",
    "lng": "-117.883232",
    "id": 3825929,
    "name": "EDC Skincare.com",
    "phone": "(714) 987-2332",
    "web": "http:\/\/www.edcskincare.com\/",
    "address": "1047 S. Placentia Avenue ",
    "country": "United States of America",
    "state": "CA",
    "city": "Fullerton",
    "postal": "92831",
    "priority": 1
  },
  {
    "lat": "34.002922",
    "lng": "-118.434875",
    "id": 3825930,
    "name": "Keep Young Forever",
    "phone": "(800) 559-1381",
    "web": "http:\/\/www.keepyoungforever.com\/",
    "address": "12476 Venice Blvd ",
    "country": "United States of America",
    "state": "CA",
    "city": "Los Angeles",
    "postal": "90066",
    "priority": 1
  },
  {
    "lat": "39.603382",
    "lng": "-105.189606",
    "id": 3825934,
    "name": "Specialized Aesthetics",
    "phone": "(303) 839-7980",
    "web": "http:\/\/www.specializedaesthetics.com\/",
    "address": "16835 Sparrow Way ",
    "country": "United States of America",
    "state": "CO",
    "city": "Morrison",
    "postal": "80465",
    "priority": 1
  },
  {
    "lat": "38.942505",
    "lng": "-104.774719",
    "id": 3825938,
    "name": "Innovative Skinology Esthetics",
    "phone": "(719) 246-4351",
    "address": "7611 N Union Blvd ",
    "country": "United States of America",
    "state": "CO",
    "city": "Colorado Springs",
    "postal": "80920",
    "priority": 1
  },
  {
    "lat": "39.092789",
    "lng": "-108.593117",
    "id": 3825941,
    "name": "Valley Surgical Care & Aesthetics",
    "phone": "(970) 773-1946",
    "web": "http:\/\/www.valleysurgicalcare.com\/",
    "address": "2478 Patterson Rd  Suite 4 ",
    "country": "United States of America",
    "state": "CO",
    "city": "Grand Junction",
    "postal": "81505",
    "priority": 1
  },
  {
    "lat": "28.582052",
    "lng": "-81.375793",
    "id": 3825942,
    "name": "Orlando Aesthetic Institute",
    "phone": "(407) 770-2002",
    "web": "http:\/\/www.orlandoai.com\/",
    "address": "120 East Par Street Suite 1000",
    "country": "United States of America",
    "state": "FL",
    "city": "Orlando",
    "postal": "32804",
    "priority": 1
  },
  {
    "lat": "28.299894",
    "lng": "-81.410477",
    "id": 3825943,
    "name": "Dr. Bogdana Trop, MD",
    "phone": "(407) 343-8101",
    "address": "720 West Oak Street Suite 308",
    "country": "United States of America",
    "state": "FL",
    "city": "Kissimmee",
    "postal": "34741",
    "priority": 1
  },
  {
    "lat": "25.750591",
    "lng": "-80.232887",
    "id": 3825946,
    "name": "Oxygen Spa",
    "phone": "(305) 858-0907",
    "web": "https:\/\/oxygenspamiami.com\/",
    "address": "2333 Coral Way ",
    "country": "United States of America",
    "state": "FL",
    "city": "Miami",
    "postal": "33145",
    "priority": 1
  },
  {
    "lat": "27.655859",
    "lng": "-80.35656",
    "id": 3825948,
    "name": "White Orchid Spa",
    "phone": "(772) 231-1133",
    "web": "http:\/\/whiteorchidspa32963.com\/",
    "address": "3500 Ocean Drive ",
    "country": "United States of America",
    "state": "FL",
    "city": "Vero Beach",
    "postal": "32963",
    "priority": 1
  },
  {
    "lat": "28.598042",
    "lng": "-81.358368",
    "id": 3825949,
    "name": "Clifford P. Clark III MD",
    "phone": "(407) 629-5555",
    "web": "http:\/\/www.dr-clark.com\/",
    "address": "701W, Morse Blvd ",
    "country": "United States of America",
    "state": "FL",
    "city": "Winter Park",
    "postal": "32789",
    "priority": 1
  },
  {
    "lat": "28.549035",
    "lng": "-81.5893733",
    "id": 3825951,
    "name": "Clear Skin",
    "phone": "(407) 536-6040",
    "address": "13750 W Colonial Dr.",
    "country": "USA",
    "state": "FL",
    "city": "Winter Garden",
    "postal": "34787",
    "priority": 1
  },
  {
    "lat": "32.536125",
    "lng": "-84.982323",
    "id": 3825953,
    "name": "Sundays Ultimate Day Spa",
    "phone": "(706) 322-5566",
    "web": "http:\/\/www.sundaysdayspa.com\/",
    "address": "2301 Brookstone Center Parkway Building 300 , Suite C ",
    "country": "United States of America",
    "state": "GA",
    "city": "Columbus",
    "postal": "31904",
    "priority": 1
  },
  {
    "lat": "34.025135",
    "lng": "-84.063446",
    "id": 3825954,
    "name": "Med Altus LLC",
    "phone": "(800) 393-3848",
    "web": "http:\/\/medaltus.com\/",
    "address": "1100 Satellite Blvd NW ",
    "country": "United States of America",
    "state": "GA",
    "city": "Suwanee",
    "postal": "30024",
    "priority": 1
  },
  {
    "lat": "41.846716",
    "lng": "-87.9912966",
    "id": 3825964,
    "name": "Grafin Skin and Beauty",
    "phone": "(630) 296-7207",
    "web": "https:\/\/www.grafinskinandbeauty.com\/",
    "webdisplay": "www.grafinskinandbeauty.com\/",
    "address": "1909 Myers Road suite 123",
    "country": "USA",
    "city": "Oakbrook Terrace",
    "postal": "60181",
    "priority": 1
  },
  {
    "lat": "38.886463",
    "lng": "-94.668213",
    "id": 3825978,
    "name": "RSVP Medspa",
    "phone": "(913) 387-1104",
    "web": "http:\/\/www.rsvpmedspa.com\/",
    "address": "13300 Metcalf Ave ",
    "country": "United States of America",
    "state": "KS",
    "city": "Overland Park",
    "postal": "66213",
    "priority": 1
  },
  {
    "lat": "38.9172268",
    "lng": "-94.6471201",
    "id": 3825979,
    "name": "Bare Med Spa - Park Place Leawood",
    "phone": "(913) 491-4000",
    "web": "http:\/\/baremedspa.com\/",
    "webdisplay": "baremedspa.com\/",
    "address": "5265 W 116th Pl ",
    "country": "USA",
    "state": "KS",
    "city": "Leawood",
    "postal": "66211",
    "priority": 1
  },
  {
    "lat": "38.901016",
    "lng": "-94.671814",
    "id": 3825981,
    "name": "Mia Bella Donna MedSpa",
    "phone": "(913) 827-9898",
    "web": "http:\/\/miabelladonnamedspa.com\/",
    "address": "12541 Foster Street Suite 330 ",
    "country": "United States of America",
    "state": "KS",
    "city": "Overland Park",
    "postal": "66213",
    "priority": 1
  },
  {
    "lat": "39.009197",
    "lng": "-94.843185",
    "id": 3825982,
    "name": "Inspire Medical Spa",
    "phone": "(913) 825-0909",
    "web": "http:\/\/www.inspiremedicalspa.com\/",
    "address": "22334 W. 66th Street ",
    "country": "United States of America",
    "state": "KS",
    "city": "Shawnee",
    "postal": "66226",
    "priority": 1
  },
  {
    "lat": "38.9575531",
    "lng": "-94.6865429",
    "id": 3825983,
    "name": "Laser Studio and Beauty Bar",
    "phone": "(913) 209-4590",
    "address": "8740 W 95TH St",
    "country": "USA",
    "state": "KS",
    "city": "Overland Park",
    "postal": "66210",
    "priority": 1
  },
  {
    "lat": "37.7146",
    "lng": "-97.222145",
    "id": 3825984,
    "name": "Wichita Plastic Surgery",
    "phone": "(316) 681-2227",
    "web": "www.wichitaplasticsurgery.com",
    "address": "1700 N. Waterfrong Pkwy #200",
    "country": "United States of America",
    "state": "KS",
    "city": "Wichita",
    "postal": "67206",
    "priority": 1
  },
  {
    "lat": "38.926453",
    "lng": "-94.647583",
    "id": 3825987,
    "name": "Aestheticare",
    "phone": "(913) 338-5476",
    "web": "http:\/\/www.greatskinkc.com\/",
    "address": "11100 Ash Street Suite 210",
    "country": "United States of America",
    "state": "KS",
    "city": "Leawood",
    "postal": "66211",
    "priority": 1
  },
  {
    "lat": "38.919067",
    "lng": "-94.639015",
    "id": 3825988,
    "name": "Dermatology and Skin Cancer Center - Leawood",
    "phone": "(913) 754-4949",
    "web": "http:\/\/kcdermcenter.com\/",
    "address": "11550 Granada ",
    "country": "United States of America",
    "state": "KS",
    "city": "Leawood",
    "postal": "66211",
    "priority": 1
  },
  {
    "lat": "38.927872",
    "lng": "-94.7698934",
    "id": 3825989,
    "name": "Reverse Medical Spa",
    "phone": "(913) 268-0400",
    "web": "http:\/\/www.reversemedicalspa.com\/",
    "webdisplay": "www.reversemedicalspa.com\/",
    "address": "15900 College Blvd suite100 ",
    "country": "USA",
    "state": "KS",
    "city": "Lenexa",
    "postal": "66219",
    "priority": 1
  },
  {
    "lat": "38.883102",
    "lng": "-94.642204",
    "id": 3825991,
    "name": "Monarch Skin Rejuvenation Center",
    "phone": "(913) 317-9386",
    "web": "https:\/\/www.monarchps.com\/skin-rejuvenation",
    "address": "4801 W 135th Street ",
    "country": "United States of America",
    "state": "KS",
    "city": "Leawood",
    "postal": "66224",
    "priority": 1
  },
  {
    "lat": "38.854206",
    "lng": "-94.647346",
    "id": 3825992,
    "name": "Bare Esthetics Medical Spa",
    "phone": "(913) 851-1455",
    "web": "http:\/\/www.bareestheticsmedicalspa.com\/",
    "address": "5337 West 151st Street ",
    "country": "United States of America",
    "state": "KS",
    "city": "Leawood",
    "postal": "66224",
    "priority": 1
  },
  {
    "lat": "38.9133143",
    "lng": "-94.7195634",
    "id": 3825993,
    "name": "Renue Aesthetic Surgery",
    "phone": "(913) 685-1108",
    "web": "http:\/\/victorperezmd.com\/",
    "webdisplay": "victorperezmd.com\/",
    "address": "11532 W 119th St",
    "country": "USA",
    "state": "KS",
    "city": "Overland Park",
    "postal": "66213",
    "priority": 1
  },
  {
    "lat": "38.995098",
    "lng": "-94.629539",
    "id": 3825995,
    "name": "Plastic and Reconstructive Surgery",
    "phone": "(913) 381-5544",
    "web": "http:\/\/www.bamcgrathmd.com\/",
    "address": "7509 Nall Avenue ",
    "country": "United States of America",
    "state": "KS",
    "city": "Shawnee Mission",
    "postal": "66208",
    "priority": 1
  },
  {
    "lat": "49.8279981",
    "lng": "-97.1043587",
    "id": 3825999,
    "name": "Laser Away Ltd",
    "phone": "(204) 253-2929",
    "web": "http:\/\/laseraway.ca\/",
    "webdisplay": "laseraway.ca\/",
    "address": "875 Dakota Street Unit 4",
    "country": "Canada",
    "state": "MB",
    "city": "Winnipeg",
    "postal": "R2M 5S5",
    "priority": 1
  },
  {
    "lat": "49.8288928",
    "lng": "-99.9628349",
    "id": 3826000,
    "name": "The Skin and Vein Centre",
    "phone": "(204) 727-1920",
    "web": "https:\/\/www.laserskinvein.com\/",
    "webdisplay": "laserskinvein.com",
    "address": "Unit K- 1300 18th St. ",
    "country": "Canada",
    "state": "MB",
    "city": "Brandon",
    "postal": "R7A 6X7",
    "priority": 1
  },
  {
    "lat": "49.895687",
    "lng": "-97.139275",
    "id": 3826001,
    "name": "Ziesmann Cosmetic Clinic",
    "phone": "(204) 942-5070",
    "web": "http:\/\/www.ziesmanncosmetic.com\/",
    "address": "#560 - 201 Portage Avenue ",
    "country": "Canada",
    "state": "MB",
    "city": "Winnipeg",
    "postal": "R3B 3K6",
    "priority": 1
  },
  {
    "lat": "49.856209",
    "lng": "-97.178406",
    "id": 3826005,
    "name": "The Derm Centre",
    "phone": "(204) 474-1221",
    "web": "http:\/\/thedc.ca\/",
    "address": "1385 Grant Avenue ",
    "country": "Canada",
    "state": "MB",
    "city": "Winnipeg",
    "postal": "R3M 1Z9",
    "priority": 4
  },
  {
    "lat": "49.869026",
    "lng": "-97.202545",
    "id": 3826006,
    "name": "First Glance Aesthetic Clinic & Surgery Centre",
    "phone": "(204) 885-1419",
    "web": "http:\/\/thefirstglance.ca\/",
    "webdisplay": "thefirstglance.ca\/",
    "address": "1851 Grant Avenue ",
    "country": "Canada",
    "state": "MB",
    "city": "Winnipeg",
    "postal": "R3N 1Z2",
    "priority": 1
  },
  {
    "lat": "51.1507611",
    "lng": "-100.0494305",
    "id": 3826007,
    "name": "Dr. Brenna and Three Graces Medispa",
    "phone": "(204) 572-5774",
    "web": "http:\/\/www.threegraces.ca\/",
    "webdisplay": "www.threegraces.ca",
    "address": "10 2nd Ave NW ",
    "country": "Canada",
    "state": "MB",
    "city": "Dauphin",
    "postal": "R7N 1H2",
    "priority": 1
  },
  {
    "lat": "49.869701",
    "lng": "-97.156593",
    "id": 3826008,
    "name": "Village Health Spa",
    "phone": "(204) 253-0748",
    "web": "http:\/\/www.villagehealthspa.com\/",
    "address": "832 Corydon Ave ",
    "country": "Canada",
    "state": "MB",
    "city": "Winnipeg",
    "postal": "R3M 0Y2",
    "priority": 1
  },
  {
    "lat": "44.948589",
    "lng": "-93.289803",
    "id": 3826019,
    "name": "The Uptown Hair District",
    "phone": "(612) 355-5250",
    "web": "http:\/\/www.thehairdistrict.com",
    "address": "802 W Lake St ",
    "country": "United States of America",
    "state": "MN",
    "city": "Minneapolis",
    "postal": "55408",
    "priority": 1
  },
  {
    "lat": "46.819672",
    "lng": "-92.075874",
    "id": 3826020,
    "name": "Twin Ports Dermatology",
    "phone": "(218) 302-1000",
    "web": "http:\/\/www.twinportsderm.com\/",
    "address": "1414 Woodland Avenue ",
    "country": "United States of America",
    "state": "MN",
    "city": "Duluth",
    "postal": "55803",
    "priority": 1
  },
  {
    "lat": "38.961098",
    "lng": "-94.36058",
    "id": 3826022,
    "name": "Karma Beauty and Wellness",
    "phone": "(816) 510-8254",
    "web": "http:\/\/karmabeautyandwellness.com\/",
    "address": "2741 NE McBain Dr. ",
    "country": "United States of America",
    "state": "MN",
    "city": "Lees Summit",
    "postal": "64064",
    "priority": 1
  },
  {
    "lat": "44.940258",
    "lng": "-93.131683",
    "id": 3826023,
    "name": "Brending Electrolysis, Inc.",
    "phone": "(651) 642-1374",
    "web": "http:\/\/www.brendingelectrolysis.com\/",
    "address": "745 Grand Ave. #101",
    "country": "United States of America",
    "state": "MN",
    "city": "St. Paul",
    "postal": "55105",
    "priority": 1
  },
  {
    "lat": "44.971581",
    "lng": "-93.383232",
    "id": 3826026,
    "name": "The Clinic for Aesthetic Beauty",
    "phone": "(763) 205-4718",
    "web": "http:\/\/theclinicmn.com\/",
    "address": "8085 Wayzata Boulevard Suite 110",
    "country": "United States of America",
    "state": "MN",
    "city": "St Louis Park",
    "postal": "55426",
    "priority": 1
  },
  {
    "lat": "45.089218",
    "lng": "-93.434937",
    "id": 3826027,
    "name": "Hogue Cosmetic Surgery",
    "phone": "(763) 447-2500",
    "web": "http:\/\/www.drhogue.com\/",
    "address": "7365 Kirkwood Ct N Suite 120",
    "country": "United States of America",
    "state": "MN",
    "city": "Maple Grove",
    "postal": "55369",
    "priority": 1
  },
  {
    "lat": "44.940414",
    "lng": "-92.953651",
    "id": 3826030,
    "name": "Aesthetic Therapies",
    "phone": "(651) 739-5181",
    "web": "http:\/\/www.aesthetictherapies.com\/",
    "address": "563 Bielenberg Drive Suite 235",
    "country": "United States of America",
    "state": "MN",
    "city": "Woodbury",
    "postal": "55125",
    "priority": 1
  },
  {
    "lat": "44.97377",
    "lng": "-93.51651",
    "id": 3826034,
    "name": "Wayzata Medical Spa",
    "phone": "(952) 473-1111",
    "web": "http:\/\/wayzatamedicalspa.com",
    "address": "317 Wayzata Blvd East ",
    "country": "United States of America",
    "state": "MN",
    "city": "Wayzata",
    "postal": "55391",
    "priority": 1
  },
  {
    "lat": "44.9718064",
    "lng": "-93.5057598",
    "id": 3826036,
    "name": "Omni Cosmetic",
    "phone": "(763) 559-4500",
    "web": "https:\/\/www.omnicosmetic.com\/",
    "webdisplay": "https:\/\/www.omnicosmetic.com\/",
    "address": "935 Wayzata Blvd. East Suite 200 ",
    "country": "USA",
    "state": "MN",
    "city": "Wayzata",
    "postal": "55391",
    "priority": 1
  },
  {
    "lat": "45.056164",
    "lng": "-92.862167",
    "id": 3826038,
    "name": "Inner Swan Aesthetics",
    "phone": "(651) 295-7695",
    "web": "http:\/\/www.myinnerswan.com\/",
    "address": "105 New England Place #260 ",
    "country": "United States of America",
    "state": "MN",
    "city": "Stillwater",
    "postal": "55082",
    "priority": 1
  },
  {
    "lat": "44.970242",
    "lng": "-93.495224",
    "id": 3826039,
    "name": "Consultative Skin Care",
    "phone": "(952) 252-0050",
    "web": "http:\/\/www.consultativeskincare.com\/",
    "address": "109 Bushaway Rd. ",
    "country": "United States of America",
    "state": "MN",
    "city": "Wayzata",
    "postal": "55391",
    "priority": 1
  },
  {
    "lat": "45.093517",
    "lng": "-93.42646",
    "id": 3826040,
    "name": "Hair District  Maple Grove",
    "phone": "(763) 657-7900",
    "web": "https:\/\/www.thehairdistrict.com\/maple-grove\/",
    "address": "11646 Fountains Drive ",
    "country": "United States of America",
    "state": "MN",
    "city": "Maple Grove",
    "postal": "55369",
    "priority": 1
  },
  {
    "lat": "44.971333",
    "lng": "-93.450928",
    "id": 3826043,
    "name": "Anew Medspa Clinic",
    "phone": "(612) 208-0741",
    "web": "http:\/\/www.medspa.clinic",
    "address": "13570 Wayzata Boulevard ",
    "country": "United States of America",
    "state": "MN",
    "city": "Minnetonka",
    "postal": "55305",
    "priority": 1
  },
  {
    "lat": "44.970135",
    "lng": "-93.455673",
    "id": 3826044,
    "name": "Inner Beauty Med Spa Inc",
    "phone": "(763) 607-6701",
    "web": "http:\/\/ibmedspa.com\/",
    "address": "13911 Ridgedale Drive, Suite 300 ",
    "country": "United States of America",
    "state": "MN",
    "city": "Minnetonka",
    "postal": "55305",
    "priority": 1
  },
  {
    "lat": "45.318382",
    "lng": "-93.562111",
    "id": 3826046,
    "name": "Renew You Medical Spa",
    "phone": "(763) 645-3313",
    "web": "http:\/\/www.renewyoumedical.com\/",
    "address": "19021 Freeport Street  #100 ",
    "country": "United States of America",
    "state": "MN",
    "city": "Elk River",
    "postal": "55330",
    "priority": 1
  },
  {
    "lat": "44.8770495",
    "lng": "-93.3258623",
    "id": 3826050,
    "name": "Lili Salon Spa Galleria",
    "phone": "(952) 224-3300",
    "web": "http:\/\/www.lilisalonspa.com\/",
    "webdisplay": "www.lilisalonspa.com\/",
    "address": "3180 Galleria ",
    "state": "MN",
    "city": "Edina",
    "postal": "55435",
    "priority": 1
  },
  {
    "lat": "44.93457",
    "lng": "-93.340149",
    "id": 3826052,
    "name": "The Hair District Execlsior & Grand- SLP",
    "phone": "(952) 929-6900",
    "web": "http:\/\/www.thehairdistrict.com\/st-louis-park\/",
    "address": "3725 Grand Way ",
    "country": "United States of America",
    "state": "MN",
    "city": "St. Louis Park",
    "postal": "55416",
    "priority": 1
  },
  {
    "lat": "44.933678",
    "lng": "-93.34594",
    "id": 3826053,
    "name": "Park Nicollet Health Care Products",
    "phone": "(952) 993-3504",
    "web": "http:\/\/www.parknicollet.com\/HealthAndWellnessInformation\/Health-Care-Products",
    "address": "3800 Park Nicollet Blvd. ",
    "country": "United States of America",
    "state": "MN",
    "city": "St. Louis Park",
    "postal": "55416",
    "priority": 1
  },
  {
    "lat": "45.076771",
    "lng": "-93.05426",
    "id": 3826054,
    "name": "Advanced Dermatology Care",
    "phone": "(651) 484-2724",
    "web": "http:\/\/adcderm.com\/",
    "address": "4480 Centerville Road ",
    "country": "United States of America",
    "state": "MN",
    "city": "White Bear Lake",
    "postal": "55127",
    "priority": 1
  },
  {
    "lat": "44.863216",
    "lng": "-93.35775",
    "id": 3826058,
    "name": "Vibrance Med Spa",
    "phone": "(952) 835-9000",
    "web": "https:\/\/vibrancemedspaedina.com\/",
    "address": "5126 Edina Industrial Blvd ",
    "country": "United States of America",
    "state": "MN",
    "city": "Edina",
    "postal": "55439",
    "priority": 1
  },
  {
    "lat": "45.08601",
    "lng": "-93.428886",
    "id": 3826064,
    "name": "Body Logic MD",
    "phone": "(763) 515-4900",
    "web": "https:\/\/www.tcintegrativehealth.com\/",
    "address": "7212 Forestview Lane ",
    "country": "United States of America",
    "state": "MN",
    "city": "Maple Grove",
    "postal": "55369",
    "priority": 1
  },
  {
    "lat": "44.97068",
    "lng": "-93.373734",
    "id": 3826065,
    "name": "Mesna Plastic Surgery",
    "phone": "(952) 927-4556",
    "web": "http:\/\/www.plasticsurgeryminneapolis.com\/",
    "address": "7407 Wayzata Boulevard ",
    "country": "United States of America",
    "state": "MN",
    "city": "St.Louis Park",
    "postal": "55426",
    "priority": 1
  },
  {
    "lat": "38.601749",
    "lng": "-90.458542",
    "id": 3826066,
    "name": "Pur-One Medispa",
    "phone": "(314) 909-0633",
    "web": "https:\/\/puronemedispa.com\/",
    "address": "12990 Manchester Rd Suite 201",
    "country": "United States of America",
    "state": "MO",
    "city": "St. Louis",
    "postal": "63131",
    "priority": 1
  },
  {
    "lat": "38.545654",
    "lng": "-91.025391",
    "id": 3826067,
    "name": "Washington Skin Solutions",
    "phone": "(636) 239-7546",
    "web": "http:\/\/washingtonskinsolutions.net\/",
    "address": "1381 High Street Suite 203",
    "country": "United States of America",
    "state": "MO",
    "city": "Washington",
    "postal": "63090",
    "priority": 1
  },
  {
    "lat": "38.932777",
    "lng": "-92.39901",
    "id": 3826068,
    "name": "Despain Cayce Dermatology and Medical Spa",
    "phone": "(573) 234-1000",
    "web": "http:\/\/www.columbiaderm.com",
    "address": "2011 Corona Road Suite 207",
    "country": "United States of America",
    "state": "MO",
    "city": "Columbia",
    "postal": "65203",
    "priority": 1
  },
  {
    "lat": "39.0988913",
    "lng": "-94.5823878",
    "id": 3826069,
    "name": "Bare Med Spa - Downtown KC",
    "phone": "(816) 844-9112",
    "web": "http:\/\/www.baremedspa.com",
    "webdisplay": "www.baremedspa.com",
    "address": "1230 Walnut Street ",
    "country": "USA",
    "state": "MO",
    "city": "Kansas City",
    "postal": "64106",
    "priority": 1
  },
  {
    "lat": "38.645565",
    "lng": "-90.445862",
    "id": 3826070,
    "name": "Thomas Francel MD",
    "phone": "(314) 251-6845",
    "web": "http:\/\/drfrancel.com\/",
    "address": "621 S. New Ballas Rd., ste. 1009B ",
    "country": "United States of America",
    "state": "MO",
    "city": "St-Louis",
    "postal": "63141",
    "priority": 1
  },
  {
    "lat": "38.931656",
    "lng": "-94.374794",
    "id": 3826073,
    "name": "Lee's Summit Dermatology",
    "phone": "(816) 525-8500",
    "web": "http:\/\/www.skinhealthcare.org\/",
    "address": "276 NE Tudor Rd ",
    "country": "United States of America",
    "state": "MO",
    "city": "Lees Summit",
    "postal": "64086",
    "priority": 1
  },
  {
    "lat": "38.915508",
    "lng": "-92.295929",
    "id": 3826075,
    "name": "Concannon Plastic Surgery",
    "phone": "(573) 449-5000",
    "web": "http:\/\/concannonplasticsurgery.com\/",
    "address": "3115 Falling Leaf Court ",
    "country": "United States of America",
    "state": "MO",
    "city": "Columbia",
    "postal": "65201",
    "priority": 1
  },
  {
    "lat": "39.04044",
    "lng": "-94.598923",
    "id": 3826077,
    "name": "Plaza Aesthetics & Wellness",
    "phone": "(816) 591-0663",
    "web": "http:\/\/www.plazamedicalspa.com\/",
    "address": "4806 Belleview Avenue ",
    "country": "United States of America",
    "state": "MO",
    "city": "Kansas City",
    "postal": "64112",
    "priority": 1
  },
  {
    "lat": "46.095528",
    "lng": "-64.747505",
    "id": 3826078,
    "name": "Allura Medical Aesthetics & Surgery",
    "phone": "(506) 853-5154",
    "web": "http:\/\/alluraclinics.ca\/",
    "address": "200 Champlain Street Suite #270",
    "country": "Canada",
    "state": "NB",
    "city": "Dieppe",
    "postal": "E1A 1P1",
    "priority": 1
  },
  {
    "lat": "48.007698",
    "lng": "-66.672943",
    "id": 3826079,
    "name": "EF Esthetic & Medi Spa",
    "phone": "(506) 759-9869",
    "web": "http:\/\/www.efmedispa.ca\/",
    "address": "100 Water Street Suite 102",
    "country": "Canada",
    "state": "NB",
    "city": "Campbellton",
    "postal": "E3N 1B1",
    "priority": 1
  },
  {
    "lat": "46.095657",
    "lng": "-64.756546",
    "id": 3826080,
    "name": "Groupe Dermapure Inc.",
    "phone": "(506) 855-1323",
    "web": "http:\/\/www.bellissimamedical.com\/",
    "webdisplay": "Groupe Dermapure Inc.",
    "address": "6-855 Dieppe Blvd",
    "country": "Canada",
    "state": "NB",
    "city": "Dieppe",
    "postal": "E1A 7R8",
    "priority": 1
  },
  {
    "lat": "46.091511",
    "lng": "-64.742485",
    "id": 3826081,
    "name": "Dre. Caroline Simard",
    "phone": "(506) 389-2200",
    "address": "185 Acadie Suite 204",
    "country": "Canada",
    "state": "NB",
    "city": "Dieppe",
    "postal": "E1A 1G6",
    "priority": 1
  },
  {
    "lat": "45.922615",
    "lng": "-66.726715",
    "id": 3826082,
    "name": "Dr. Paula Carmichael",
    "phone": "(506) 455-1100",
    "web": "http:\/\/www.carmichaelhealthcare.com",
    "address": "1794 Hanwell RD ",
    "country": "Canada",
    "state": "NB",
    "city": "Hanwell",
    "postal": "E3C 2A8",
    "priority": 1
  },
  {
    "lat": "46.0932421",
    "lng": "-64.78027639999999",
    "id": 3826085,
    "name": "Sparkle Lifestyle and Medispa",
    "phone": "(506) 871-4421",
    "web": "https:\/\/sparklelifestyle.ca\/",
    "webdisplay": "sparklelifestyle.ca\/",
    "address": "154 Church Street",
    "country": "Canada",
    "state": "NB",
    "city": "Moncton",
    "postal": "E1C 4Z7",
    "priority": 1
  },
  {
    "lat": "46.471329",
    "lng": "-64.72184",
    "id": 3826086,
    "name": "Esthetique Plus",
    "phone": "(506) 743-2824",
    "web": "https:\/\/www.esthetiqueplus.ca",
    "address": "66 Irving Blvd. ",
    "country": "Canada",
    "state": "NB",
    "city": "Bouctouche",
    "postal": "E4S 3L3",
    "priority": 1
  },
  {
    "lat": "46.0956938",
    "lng": "-64.7460321",
    "id": 3826087,
    "name": "Figurra Institute",
    "phone": "(506) 389-8777",
    "web": "http:\/\/figurra.ca\/index.php\/en\/",
    "webdisplay": "figurra.ca\/index.php\/en\/",
    "address": "2A-250, rue Champlain",
    "country": "Canada",
    "state": "NB",
    "city": "Dieppe",
    "postal": "E1A 1P3",
    "priority": 4
  },
  {
    "lat": "47.6916883",
    "lng": "-65.7011197",
    "id": 3826088,
    "name": "Clinique Phi.",
    "phone": "(506) 350-5030",
    "address": "970, rue Principale Bureau 4 ",
    "country": "Canada",
    "state": "NB",
    "city": "Beresford",
    "postal": "E8K 2H6",
    "priority": 1
  },
  {
    "lat": "36.0662556",
    "lng": "-80.3251323",
    "id": 3826089,
    "name": "Carolina Laser & Cosmetic Center",
    "phone": "(336) 659-2663",
    "web": "http:\/\/www.carolinalaser.com\/",
    "webdisplay": "www.carolinalaser.com\/",
    "address": "1255 Creekshire Way Ste 290",
    "country": "USA",
    "state": "NC",
    "city": "Winston Salem",
    "postal": "27103",
    "priority": 1
  },
  {
    "lat": "47.877525",
    "lng": "-97.043533",
    "id": 3826093,
    "name": "Sublime Aesthetics Professional",
    "phone": "(701) 757-3300",
    "web": "http:\/\/sublimepros.com\/",
    "address": "4551 S. Washington Avenue Suite H",
    "country": "United States of America",
    "state": "ND",
    "city": "Grand Forks",
    "postal": "58201",
    "priority": 1
  },
  {
    "lat": "46.856293",
    "lng": "-96.854218",
    "id": 3826094,
    "name": "Infinite Skin Aesthetic Medical Spa",
    "phone": "(701) 282-9642",
    "web": "http:\/\/www.infiniteskinfargo.com\/",
    "address": "1665 43rd St S Suite 102 ",
    "country": "United States of America",
    "state": "ND",
    "city": "Fargo",
    "postal": "58103",
    "priority": 1
  },
  {
    "lat": "46.832214",
    "lng": "-96.806763",
    "id": 3826096,
    "name": "Hair Success Laser Skin & Laser ClInic",
    "phone": "(701) 293-8700",
    "web": "http:\/\/www.hairsuccesssalons.com\/",
    "address": "1638 32nd Ave South # 3 ",
    "country": "United States of America",
    "state": "ND",
    "city": "Fargo",
    "postal": "58103",
    "priority": 1
  },
  {
    "lat": "47.916695",
    "lng": "-97.074127",
    "id": 3826097,
    "name": "Truyu Aesthetic Center",
    "phone": "(701) 780-4279",
    "web": "http:\/\/www.altru.org\/truyu\/",
    "address": "3165 Demers Avenue ",
    "country": "United States of America",
    "state": "ND",
    "city": "Grand Forks",
    "postal": "58201",
    "priority": 1
  },
  {
    "lat": "47.920532",
    "lng": "-97.045525",
    "id": 3826098,
    "name": "Center for Smile Design",
    "phone": "(701) 746-1481",
    "web": "http:\/\/www.centerforsmiledesign.com\/",
    "address": "117 N Washington St. ",
    "country": "United States of America",
    "state": "ND",
    "city": "Grand Forks",
    "postal": "58201",
    "priority": 1
  },
  {
    "lat": "47.904755",
    "lng": "-97.068031",
    "id": 3826099,
    "name": "NVOG Laser Aethetics",
    "phone": "(701) 738-2004",
    "web": "https:\/\/www.northernvalleyobgyn.com\/",
    "address": "2810 17th Ave S. ",
    "country": "United States of America",
    "state": "ND",
    "city": "Grand Forks",
    "postal": "58201",
    "priority": 1
  },
  {
    "lat": "41.234035",
    "lng": "-96.115593",
    "id": 3826100,
    "name": "LovelySkin",
    "phone": "(402) 697-1100",
    "web": "http:\/\/www.lovelyskin.com\/",
    "address": "2929 Oakview Drive PO 1102-102",
    "country": "United States of America",
    "state": "NE",
    "city": "Omaha",
    "postal": "68144",
    "priority": 1
  },
  {
    "lat": "41.272251",
    "lng": "-96.231194",
    "id": 3826101,
    "name": "Skin PC",
    "phone": "(402) 916-5665",
    "web": "http:\/\/www.skinpc.com",
    "address": "1408 Veterans Drive Suite 100 ",
    "country": "United States of America",
    "state": "NE",
    "city": "Elkhorn",
    "postal": "68022",
    "priority": 1
  },
  {
    "lat": "47.618641",
    "lng": "-52.713181",
    "id": 3826108,
    "name": "The Landells Clinic",
    "phone": "(709) 739-7546",
    "web": "http:\/\/www.landellsclinic.ca\/",
    "address": "120 Stavanger Drive Suite 104",
    "country": "Canada",
    "state": "NL",
    "city": "St. John's",
    "postal": "A1A 5E8",
    "priority": 4
  },
  {
    "lat": "48.959492",
    "lng": "-54.615746",
    "id": 3826109,
    "name": "Fresh Faces",
    "phone": "(709) 651-7546",
    "web": "http:\/\/www.freshfacesnl.com\/",
    "address": "1 A Markham Place ",
    "country": "Canada",
    "state": "NL",
    "city": "Gander",
    "postal": "A1V 0A8",
    "priority": 1
  },
  {
    "lat": "47.581108",
    "lng": "-52.715607",
    "id": 3826110,
    "name": "Bense Medical Aesthetics",
    "phone": "(709) 722-4060",
    "web": "http:\/\/www.benseaesthetics.ca\/",
    "address": "100 Elizabeth Ave. Suite 102, Elizabeth Towers ",
    "country": "Canada",
    "state": "NL",
    "city": "St. John's",
    "postal": "A1B 1S1",
    "priority": 1
  },
  {
    "lat": "47.576153",
    "lng": "-52.70245",
    "id": 3826111,
    "name": "NuDerm Skin Care Clinic",
    "phone": "(709) 579-5717",
    "web": "https:\/\/nuderm.ca\/",
    "address": "20 Lake Avenue, 3rd Floor ",
    "country": "Canada",
    "state": "NL",
    "city": "St. John's",
    "postal": "A1A 1H4",
    "priority": 1
  },
  {
    "lat": "47.563934",
    "lng": "-52.708008",
    "id": 3826112,
    "name": "The Skin Spa Inc.",
    "phone": "(709) 221-4071",
    "web": "https:\/\/www.theskinspainc.com\/",
    "address": "335 Duckworth Street ",
    "country": "Canada",
    "state": "NL",
    "city": "St John's",
    "postal": "A1C 1G9",
    "priority": 1
  },
  {
    "lat": "35.779503",
    "lng": "-78.625267",
    "id": 3826114,
    "name": "PHYSIOS Med-Aesthetics",
    "phone": "(919) 828-1080",
    "web": "http:\/\/www.physiosaesthetics.com",
    "address": "904 New Bern Ave ",
    "country": "United States of America",
    "state": "NC",
    "city": "Raleigh",
    "postal": "27601",
    "priority": 1
  },
  {
    "lat": "44.715008",
    "lng": "-63.6726",
    "id": 3826115,
    "name": "Advance MD Anti-Aging Clinic",
    "phone": "(902) 832-6000",
    "web": "http:\/\/advancemd.ca\/",
    "address": "210 Waterfront Drive Suite 105",
    "country": "Canada",
    "state": "NS",
    "city": "Bedford",
    "postal": "B4A 0H3",
    "priority": 1
  },
  {
    "lat": "44.655823",
    "lng": "-63.548302",
    "id": 3826116,
    "name": "Dr. Louis Bourget",
    "phone": "(902) 334-0702",
    "web": "http:\/\/www.drbourget.com\/",
    "address": "18 Acadia Street ",
    "country": "Canada",
    "state": "NS",
    "city": "Dartmouth",
    "postal": "B2Y 4H3",
    "priority": 1
  },
  {
    "lat": "44.656662",
    "lng": "-63.597866",
    "id": 3826117,
    "name": "Sincerely, Skin",
    "phone": "(902) 407-9455",
    "web": "https:\/\/www.sincerelyskinhfx.ca\/",
    "webdisplay": "Sincerely, Skin",
    "address": "200-2742 Robie Street ",
    "country": "Canada",
    "state": "NS",
    "city": "Halifax",
    "postal": "B3K 4P2",
    "priority": 1
  },
  {
    "lat": "44.6462345",
    "lng": "-63.5905547",
    "id": 3826118,
    "name": "Aurora Aesthetics",
    "phone": "(902) 406-4040",
    "web": "http:\/\/www.auroracosmetic.ca\/",
    "webdisplay": "Aurora Cosmetics",
    "address": "6012 Pepperell Street",
    "country": "Canada",
    "state": "NS",
    "city": "Halifax",
    "postal": "B3H 0C3",
    "priority": 1
  },
  {
    "lat": "44.643936",
    "lng": "-63.569309",
    "id": 3826120,
    "name": "The Landings Surgical Centre",
    "phone": "(902) 492-2007",
    "web": "http:\/\/www.landingsurgery.ca\/",
    "address": "1477 Lower Water Street Suite 7A",
    "country": "Canada",
    "state": "NS",
    "city": "Halifax",
    "postal": "B3J 3Z2",
    "priority": 1
  },
  {
    "lat": "44.736195",
    "lng": "-63.657043",
    "id": 3826122,
    "name": "Vibe Salon Medi Spa",
    "phone": "(902) 835-5976",
    "web": "http:\/\/www.vibesalonspa.com\/",
    "address": "1658 Bedford Highway ",
    "country": "Canada",
    "state": "NS",
    "city": "Bedford",
    "postal": "B4A 2X9",
    "priority": 5
  },
  {
    "lat": "44.655693",
    "lng": "-63.594257",
    "id": 3826123,
    "name": "Soma Vein  & Laser Centre",
    "phone": "(902) 835-2266",
    "web": "http:\/\/somaveinclinic.ca\/",
    "address": "2622 Agricola Street ",
    "country": "Canada",
    "state": "NS",
    "city": "Halifax",
    "postal": "B3K 4C9",
    "priority": 1
  },
  {
    "lat": "45.366889",
    "lng": "-63.283388",
    "id": 3826124,
    "name": "Truro Medi Spa",
    "phone": "(902) 893-7613",
    "web": "http:\/\/www.nslaser.com\/",
    "webdisplay": "www.nslaser.com\/",
    "address": "63 Queen Street",
    "country": "Canada",
    "state": "NS",
    "city": "Truro",
    "postal": "B2N 2B2",
    "priority": 5
  },
  {
    "lat": "44.643662",
    "lng": "-63.5758811",
    "id": 3826125,
    "name": "Vitality MediSpa",
    "phone": "(902) 422-4475",
    "web": "http:\/\/www.vitalitymedispa.ca\/",
    "webdisplay": "www.vitalitymedispa.ca\/",
    "address": "5424 Doyle Street",
    "country": "Canada",
    "state": "NS",
    "city": "Halifax",
    "postal": "B3J 1H9",
    "priority": 5
  },
  {
    "lat": "46.1252724",
    "lng": "-60.2000178",
    "id": 3826126,
    "name": "Dr. A.O. Atiyah Inc.",
    "phone": "(902) 862-7212",
    "address": "336 Kings Rd",
    "country": "Canada",
    "state": "NS",
    "city": "Sydney",
    "postal": "B1S 1A9",
    "priority": 1
  },
  {
    "lat": "25.66194",
    "lng": "-100.411728",
    "id": 3826127,
    "name": "Skiyn Medical SA DE CV.",
    "phone": "01 (81) 8335-0299",
    "web": "http:\/\/www.skinmedical.com.mx\/contacto\/",
    "webdisplay": "www.skinmedical.com.mx\/contacto\/",
    "address": "Padre Mier 319 Colinia Rincon de San Francsico",
    "country": "Mexico",
    "state": "Nuevo Leon",
    "city": "San Pedro Garza Garcia",
    "postal": "66238",
    "priority": 1
  },
  {
    "lat": "35.988609",
    "lng": "-115.101624",
    "id": 3826128,
    "name": "Francesca's Facelift",
    "phone": "(702) 324-3849",
    "web": "http:\/\/francescasfaceliftoflasvegas.com\/",
    "address": "11201 S Eastern Ave Suite 115",
    "country": "United States of America",
    "state": "NV",
    "city": "Henderson",
    "postal": "89052",
    "priority": 1
  },
  {
    "lat": "40.759396",
    "lng": "-73.96978",
    "id": 3826133,
    "name": "Esthetics Tech",
    "phone": "(212) 759-7608",
    "web": "http:\/\/estheticstech.com\/",
    "address": "135 E54 St 6J ",
    "country": "United States of America",
    "state": "NY",
    "city": "New York",
    "postal": "10022",
    "priority": 1
  },
  {
    "lat": "35.80014",
    "lng": "-95.223351",
    "id": 3826141,
    "name": "Pure Esthetics",
    "phone": "(918) 931-1262",
    "address": "1452 Manor Pl ",
    "country": "United States of America",
    "state": "OK",
    "city": "Fort Gibson",
    "postal": "74434",
    "priority": 1
  },
  {
    "lat": "36.750641",
    "lng": "-95.974297",
    "id": 3826142,
    "name": "Hill Dermatology",
    "phone": "(918) 214-8888",
    "web": "http:\/\/hilldermatology.com\/",
    "address": "309 SE Frank Phillips Blvd ",
    "country": "United States of America",
    "state": "OK",
    "city": "Bartlesville",
    "postal": "74003",
    "priority": 1
  },
  {
    "lat": "36.0602061",
    "lng": "-95.9028207",
    "id": 3826143,
    "name": "Lisa Richards Aesthetician",
    "phone": "(918) 520-4807",
    "address": "6532 E. 71st ST Suite 104",
    "country": "USA",
    "state": "OK",
    "city": "Tulsa",
    "postal": "74133",
    "priority": 1
  },
  {
    "lat": "43.591919",
    "lng": "-79.63591",
    "id": 3826144,
    "name": "McLean Clinic",
    "phone": "(905) 273-4888",
    "web": "https:\/\/www.mcleanclinic.com\/",
    "address": "50 Burnhathorpe Rd. West # 343",
    "country": "Canada",
    "state": "ON",
    "city": "Mississauga",
    "postal": "L5B 3C2",
    "priority": 1
  },
  {
    "lat": "42.051746",
    "lng": "-82.604797",
    "id": 3826145,
    "name": "Laser Looks Clinic",
    "phone": "(519) 324-0078",
    "web": "http:\/\/laserlooks.ca\/",
    "address": "245 Talbot Street, West #102",
    "country": "Canada",
    "state": "ON",
    "city": "Leamington",
    "postal": "N8H 1N8",
    "priority": 1
  },
  {
    "lat": "43.866085",
    "lng": "-79.3871",
    "id": 3826146,
    "name": "Fountain Laser Clinic Inc.",
    "phone": "(416) 625-1736",
    "web": "http:\/\/www.fountainhealthspa.com\/",
    "webdisplay": "www.fountainhealthspa.com\/",
    "address": "9425 Leslie Street #14",
    "country": "Canada",
    "state": "ON",
    "city": "Richmond Hill",
    "postal": "L4B 3N7",
    "priority": 1
  },
  {
    "lat": "43.797878",
    "lng": "-79.425598",
    "id": 3826147,
    "name": "Dr. Amir Rouzati",
    "phone": "(905) 707-6080",
    "web": "https:\/\/rejuvamdtoronto.ca\/",
    "address": "100 Steeles Ave W Unit 34C",
    "country": "Canada",
    "state": "ON",
    "city": "Thornhill",
    "postal": "L4J 7Y1",
    "priority": 1
  },
  {
    "lat": "43.589649",
    "lng": "-80.573578",
    "id": 3826148,
    "name": "Jessica Caceres",
    "phone": "(519) 404-3444",
    "address": "112 Oriole Pkwy",
    "country": "Canada",
    "state": "ON",
    "city": "Elmira",
    "postal": "N3B 1C5",
    "priority": 1
  },
  {
    "lat": "43.86371",
    "lng": "-79.70985999999999",
    "id": 3826149,
    "name": "LaserMed",
    "phone": "(905) 857-4388",
    "web": "http:\/\/www.lasermed.ca\/",
    "webdisplay": "LaserMed",
    "address": "Unit 210 - 170 McEwan Dr. E",
    "country": "Canada",
    "state": "ON",
    "city": "Bolton",
    "postal": "L7E 4C8",
    "priority": 1
  },
  {
    "lat": "43.84369119999999",
    "lng": "-79.4293345",
    "id": 3826151,
    "name": "Skin Vitality Medical Clinic - Richmond Hill",
    "phone": "(905) 763-2001",
    "web": "https:\/\/www.skinvitality.ca\/richmond-hill\/",
    "webdisplay": "Skin Vitality Medical Clinic - Richmond Hill",
    "address": "8865 Yonge St Unit B-6",
    "country": "Canada",
    "state": "ON",
    "city": "Richmond Hill",
    "postal": "L4C 6Z1",
    "priority": 4
  },
  {
    "lat": "44.493641",
    "lng": "-81.373032",
    "id": 3826152,
    "name": "Drifting Sands Spa",
    "phone": "(519) 797-3007",
    "web": "http:\/\/breakwaterlasermedical.com\/",
    "address": "66 Albert Street, South P.O. Box 310",
    "country": "Canada",
    "state": "ON",
    "city": "Southampton",
    "postal": "N0H 2L0",
    "priority": 1
  },
  {
    "lat": "43.722527",
    "lng": "-79.71756",
    "id": 3826153,
    "name": "Goldberg Medical Esthetics",
    "phone": "(905) 791-3133",
    "web": "http:\/\/goldbergesthetics.com\/",
    "address": "18 Kensington Road Suite #300",
    "country": "Canada",
    "state": "ON",
    "city": "Brampton",
    "postal": "L6T 4S5",
    "priority": 1
  },
  {
    "lat": "43.648254",
    "lng": "-79.506737",
    "id": 3826154,
    "name": "Dr. Ingrid Jarvis Dermatology",
    "phone": "(416) 233-3340",
    "web": "http:\/\/www.ingridjarvis.com\/",
    "address": "2917 Bloor Street, West Suite #7",
    "country": "Canada",
    "state": "ON",
    "city": "Toronto",
    "postal": "M8X 1B4",
    "priority": 1
  },
  {
    "lat": "42.260971",
    "lng": "-82.794029",
    "id": 3826156,
    "name": "The Cole Clinic",
    "phone": "(519) 727-4247",
    "web": "http:\/\/www.coleclinic.com\/",
    "address": "1344 County Road #22 Suite 101",
    "country": "Canada",
    "state": "ON",
    "city": "Emeryville (Windsor)",
    "postal": "N0R 1C0",
    "priority": 1
  },
  {
    "lat": "43.240726",
    "lng": "-79.875969",
    "id": 3826159,
    "name": "Monarch Laser & Wellness Centre",
    "phone": "(905) 388-2400",
    "web": "http:\/\/www.monarchwellness.ca\/",
    "address": "15 Empress Avenue Suite 2",
    "country": "Canada",
    "state": "ON",
    "city": "Hamilton",
    "postal": "L9A 1M1",
    "priority": 1
  },
  {
    "lat": "43.763882",
    "lng": "-79.410576",
    "id": 3826162,
    "name": "Dr. Anthony Chen",
    "phone": "(416) 463-6929",
    "address": "491 Church St. Suite 200",
    "country": "Canada",
    "state": "ON",
    "city": "Toronto",
    "postal": "M2N 6N3",
    "priority": 1
  },
  {
    "lat": "45.304249",
    "lng": "-75.894615",
    "id": 3826163,
    "name": "Kanata Skin Clinic",
    "phone": "(613) 599-1314",
    "web": "http:\/\/www.kanataskinclinic.ca\/",
    "address": "99 Kakulu Rd Suite 200",
    "country": "Canada",
    "state": "ON",
    "city": "Ottawa",
    "postal": "K2L 3C8",
    "priority": 1
  },
  {
    "lat": "43.750767",
    "lng": "-79.739418",
    "id": 3826165,
    "name": "Dr. Shakti Sharma Medicine Professional Corporation",
    "phone": "(905) 763-2526",
    "web": "http:\/\/drsharmadermatology.ca\/",
    "address": "2250 Bovaird Drive, East Suite 201",
    "country": "Canada",
    "state": "ON",
    "city": "Brampton",
    "postal": "L6R 0E3",
    "priority": 1
  },
  {
    "lat": "43.661293",
    "lng": "-79.38121",
    "id": 3826166,
    "name": "Lege Artis Skin Care Inc",
    "phone": "(416) 642-1382",
    "web": "http:\/\/www.lege-artis.ca\/",
    "address": "27 Carlton St Suite 201",
    "country": "Canada",
    "state": "ON",
    "city": "Toronto",
    "postal": "M5B 1L2",
    "priority": 1
  },
  {
    "lat": "45.3823639",
    "lng": "-75.745076",
    "id": 3826167,
    "name": "The Best You - Ottawa West",
    "phone": "(613) 728-1008",
    "web": "http:\/\/www.thebestyou.com\/",
    "webdisplay": "www.thebestyou.com\/",
    "address": "1545 Carling Avenue Suite 202",
    "country": "Canada",
    "state": "ON",
    "city": "Ottawa",
    "postal": "K1Z 8P9",
    "priority": 4
  },
  {
    "lat": "43.7041499",
    "lng": "-79.4097021",
    "id": 3826168,
    "name": "Skin Vitality Medical Clinic - Toronto",
    "phone": "(416) 969-9669",
    "web": "https:\/\/www.skinvitality.ca\/toronto\/",
    "webdisplay": "Skin Vitality Medical Clinic - Toronto",
    "address": "351 Eglinton Avenue West",
    "country": "Canada",
    "state": "ON",
    "city": "Toronto",
    "postal": "M5N 1A3",
    "priority": 4
  },
  {
    "lat": "44.509583",
    "lng": "-80.240883",
    "id": 3826169,
    "name": "The Best You - Collingwood",
    "phone": "(705) 445-1007",
    "web": "http:\/\/www.thebestyou.com\/",
    "address": "10 Keith Avenue Suite 203",
    "country": "Canada",
    "state": "ON",
    "city": "Collingwood",
    "postal": "L9Y 0W5",
    "priority": 4
  },
  {
    "lat": "43.132149",
    "lng": "-80.752296",
    "id": 3826171,
    "name": "Dr. J. Bonnett Medicine Professional Corp.",
    "phone": "(519) 536-9709",
    "web": "http:\/\/drbonnettcosmetic.com\/",
    "address": "600 Princess Street Suite 203",
    "country": "Canada",
    "state": "ON",
    "city": "Woodstock",
    "postal": "N4S 4H4",
    "priority": 1
  },
  {
    "lat": "43.752857",
    "lng": "-79.358437",
    "id": 3826172,
    "name": "Fairview Laser Clinic Inc.",
    "phone": "(416) 495-8547",
    "web": "http:\/\/www.fairviewcosmeticsurgery.com\/",
    "address": "801 York Mills Road Suite 207",
    "country": "Canada",
    "state": "ON",
    "city": "Toronto",
    "postal": "M3B 1X7",
    "priority": 1
  },
  {
    "lat": "45.3970294",
    "lng": "-75.6684229",
    "id": 3826173,
    "name": "Louis Weatherhead Medicine Professional Corporation",
    "phone": "(613) 230-8191",
    "web": "http:\/\/doctorweatherhead.com\/",
    "webdisplay": "doctorweatherhead.com\/",
    "address": "1919 Riverside Drive Suite 208",
    "country": "Canada",
    "state": "ON",
    "city": "Ottawa",
    "postal": "K1H 1A2",
    "priority": 1
  },
  {
    "lat": "43.686043",
    "lng": "-79.393471",
    "id": 3826174,
    "name": "Dr. Sanjay Siddha",
    "phone": "(416) 427-6641",
    "address": "1366 Yonge St. suite 209",
    "country": "Canada",
    "state": "ON",
    "city": "Toronto",
    "postal": "M4T 3A7",
    "priority": 1
  },
  {
    "lat": "42.301392",
    "lng": "-82.992279",
    "id": 3826175,
    "name": "The Healthy Image Centre",
    "phone": "(519) 971-9542",
    "web": "http:\/\/www.healthyimage.ca\/",
    "address": "2224 Walker Road Suite 300",
    "country": "Canada",
    "state": "ON",
    "city": "Windsor",
    "postal": "N8W 5L7",
    "priority": 1
  },
  {
    "lat": "43.6898408",
    "lng": "-79.3950413",
    "id": 3826176,
    "name": "Manis Cosmetic Consulting",
    "phone": "(416) 522-8286",
    "web": "http:\/\/www.helenmanis.com\/",
    "webdisplay": "www.helenmanis.com\/",
    "address": "1560 Yonge Street, Suite 201",
    "country": "Canada",
    "state": "ON",
    "city": "Toronto",
    "postal": "M4T 2S9",
    "priority": 1
  },
  {
    "lat": "43.789532",
    "lng": "-79.586342",
    "id": 3826178,
    "name": "Woodbridge Dermatology & Laser Centre",
    "phone": "(905) 851-1436",
    "web": "http:\/\/www.woodbridgedermatology.ca\/",
    "address": "8077 Islington Avenue, North Suite 301",
    "country": "Canada",
    "state": "ON",
    "city": "Woodbridge",
    "postal": "L4L 7X7",
    "priority": 1
  },
  {
    "lat": "43.227291",
    "lng": "-79.765236",
    "id": 3826179,
    "name": "Doctor V Medical & Cosmetic Dermatology",
    "phone": "(905) 549-1025",
    "web": "http:\/\/doctorv.ca\/",
    "address": "800 Queenston Road Suite 305",
    "country": "Canada",
    "state": "ON",
    "city": "Hamilton",
    "postal": "L8G 1A7",
    "priority": 1
  },
  {
    "lat": "45.415901",
    "lng": "-75.694847",
    "id": 3826182,
    "name": "LYS Spa",
    "phone": "(613) 565-0111",
    "web": "http:\/\/lysbl.ca\/",
    "address": "97 Main St",
    "country": "Canada",
    "state": "ON",
    "city": "Ottawa",
    "postal": "K1S 1B8",
    "priority": 1
  },
  {
    "lat": "43.6713814",
    "lng": "-79.3956277",
    "id": 3826183,
    "name": "SpaMedica",
    "phone": "(416) 642-1300",
    "web": "https:\/\/www.spamedica.com\/",
    "webdisplay": "www.spamedica.com\/",
    "address": "66 Avenue Road Suite 2, Lower Level",
    "country": "Canada",
    "state": "ON",
    "city": "Toronto",
    "postal": "M5R 3N8",
    "priority": 6
  },
  {
    "lat": "43.691257",
    "lng": "-79.75396",
    "id": 3826185,
    "name": "Brampton Cosmetic Surgery Centre and Medical Spa",
    "phone": "(905) 451-5855",
    "web": "http:\/\/www.bramptoncosmetic.com\/",
    "address": "145 Queen Street, East Suite 400",
    "country": "Canada",
    "state": "ON",
    "city": "Brampton",
    "postal": "L6W 3P8",
    "priority": 1
  },
  {
    "lat": "43.249954",
    "lng": "-79.877113",
    "id": 3826186,
    "name": "Stephanie MacDonald, RN",
    "phone": "(905) 543-1341",
    "address": "69 Herkimer Street Suite 504",
    "country": "Canada",
    "state": "ON",
    "city": "Hamilton",
    "postal": "L8P 2G6",
    "priority": 1
  },
  {
    "lat": "45.381775",
    "lng": "-75.744423",
    "id": 3826187,
    "name": "Dr. Peter Brownrigg Inc.",
    "phone": "(613) 724-1214",
    "web": "http:\/\/www.drpbrownrigg.ca\/",
    "address": "1525 Carling avenue Suite 608",
    "country": "Canada",
    "state": "ON",
    "city": "Ottawa",
    "postal": "K1Z 8R9",
    "priority": 1
  },
  {
    "lat": "43.6702995",
    "lng": "-79.39016409999999",
    "id": 3826188,
    "name": "Yorkville Medical Centre",
    "phone": "(416) 977-5427",
    "web": "http:\/\/www.yorkville-medical.com\/contact",
    "address": "1240 Bay Street Suite 700",
    "country": "Canada",
    "state": "ON",
    "city": "Toronto",
    "postal": "M5R 2A7",
    "priority": 1
  },
  {
    "lat": "45.390747",
    "lng": "-75.723778",
    "id": 3826189,
    "name": "Dr. Karen J. Dover MD",
    "phone": "(613) 715-9900",
    "web": "http:\/\/www.kjd-md.com\/",
    "address": "1081 Carling Suite 701",
    "country": "Canada",
    "state": "ON",
    "city": "Ottawa",
    "postal": "K1Y 4G2",
    "priority": 1
  },
  {
    "lat": "36.778259",
    "lng": "-119.417931",
    "id": 3826190,
    "name": "Queensway Medical Centre",
    "phone": "(519) 426-0911",
    "address": "65 Donly Dr. North Suite B, Unit 4",
    "country": "Canada",
    "state": "ON",
    "city": "Simcoe",
    "postal": "N3Y 0C2",
    "priority": 1
  },
  {
    "lat": "44.352631",
    "lng": "-79.663963",
    "id": 3826191,
    "name": "Advanced Laser & Skin Clinic",
    "phone": "(905) 252-3507",
    "web": "http:\/\/advancedlaserskinclinic.org\/",
    "address": "411 Huronia Rd Unit # 8",
    "country": "Canada",
    "state": "ON",
    "city": "Barrie",
    "postal": "L4N 9B3",
    "priority": 1
  },
  {
    "lat": "43.4643352",
    "lng": "-79.6828791",
    "id": 3826192,
    "name": "GradeMed",
    "phone": "(905) 849-4282",
    "web": "http:\/\/www.briarwoodsurgical.com\/",
    "webdisplay": "www.briarwoodsurgical.com\/",
    "address": "406 North Service Road, East Unit #1",
    "country": "Canada",
    "state": "ON",
    "city": "Oakville",
    "postal": "L6H 5R2",
    "priority": 1
  },
  {
    "lat": "43.844101",
    "lng": "-79.535461",
    "id": 3826193,
    "name": "Noorite Medical Centre",
    "phone": "(905) 417-9672",
    "web": "https:\/\/www.nooriterehab.ca\/",
    "address": "9671 Jane Street Unit #1",
    "country": "Canada",
    "state": "ON",
    "city": "Maple",
    "postal": "L6A 3X5",
    "priority": 1
  },